$IIMWD,025.5,T,024.5,M,5.7,N,2.9,M*4C
$IIVTG,078.0,T,077.0,M,0.0,N,0.0,K*56
$IIAPB,A,A,0.00,R,N,,,,,0,193.0,M,,*09
$IIBWC,094602,,,,,194.0,T,193.0,M,1.90,N,0*29
$IIDBT,8.9,f,2.71,M,1.48,F*19
$IIGGA,094602,4050.075,N,01415.194,E,1,06,1,7,M,47,M,,*4F
$IIGLL,4050.075,N,01415.194,E,094602,A*3A
$IIHDG,039.0,,,1,E*37
$IIHDM,039.0,M*28
$IIHDT,040.0,T*26
$IIRSA,16,A,,V*50
$IIMWV,006.0,R,5.3,N,A*3D
$IIMWV,006.0,T,5.3,N,A*3B
$PNATD,II,,A,A,A,,,,,,*22
$IIVHW,040.0,T,039.0,M,0.00,N,0.00,K*5B
$IIVPW,0.00,N,0.00,M*52
$IIVWR,006.0,R,5.3,N,2.7,M,9.8,K*4D
$IIVWT,006.0,R,5.3,N,2.7,M,9.8,K*4B
$IIXTE,A,A,0.00,R,N*67
$IIAPB,A,A,0.00,R,N,,,,,0,193.0,M,,*09
$IIBWC,094604,,,,,194.0,T,193.0,M,1.90,N,0*2F
$IIDBT,8.3,f,2.53,M,1.38,F*14
$IIGGA,094604,4050.075,N,01415.194,E,1,06,1,7,M,47,M,,*49
$IIGLL,4050.075,N,01415.194,E,094604,A*3C
$IIHDG,038.5,,,1,E*33
$IIHDM,038.5,M*2C
$IIHDT,039.5,T*2D
$IIRSA,16,A,,V*50
$IIMWV,346.5,R,4.8,N,A*35
$IIMWV,346.5,T,4.8,N,A*33
$PNATD,II,,A,A,A,,,,,,*22
$IIVHW,040.0,T,039.0,M,0.00,N,0.00,K*5B
$IIVPW,0.00,N,0.00,M*52
$IIVWR,013.5,L,4.8,N,2.5,M,8.9,K*5A
$IIVWT,013.5,L,4.8,N,2.5,M,8.9,K*5C
$IIXTE,A,A,0.00,R,N*67
$IIGSA,,3,06,30,21,05,15,16,,,,,,,,1,*7B
$IIGSV,2,1,24,06,75,008,42,30,54,109,42,21,43,181,41,05,25,118,40*6A
$IIGSV,2,2,24,15,18,195,42,10,14,078,,16,12,302,28,01,06,259,*63
$IIMTW,15.0,C*17
$IIZDA,094606,14,01,2006,,*52
$IIHVM,1,E*27
$IIZTG,094606,,0*58
$IIMWD,025.5,T,024.5,M,4.3,N,2.2,M*42
$IIVTG,078.0,T,077.0,M,0.0,N,0.0,K*56
$IIAPB,A,A,0.00,R,N,,,,,0,193.0,M,,*09
$IIBWC,094607,,,,,194.0,T,193.0,M,1.90,N,0*2C
$IIDBT,8.3,f,2.53,M,1.38,F*14
$IIGGA,094607,4050.075,N,01415.194,E,1,05,3,8,M,47,M,,*44
$IIGLL,4050.075,N,01415.194,E,094607,A*3F
$IIHDG,039.0,,,1,E*37
$IIHDM,039.0,M*28
$IIHDT,040.0,T*26
$IIRSA,16,A,,V*50
$IIMWV,345.5,R,4.0,N,A*3E
$IIMWV,345.5,T,4.0,N,A*38
$PNATD,II,,A,A,A,,,,,,*22
$IIVHW,040.0,T,039.0,M,0.00,N,0.00,K*5B
$IIVPW,0.00,N,0.00,M*52
$IIVWR,014.5,L,4.0,N,2.1,M,7.4,K*53
$IIVWT,030.5,L,4.1,N,2.1,M,7.6,K*50
$IIXTE,A,A,0.00,R,N*67
$IIAPB,A,A,0.00,R,N,,,,,0,193.0,M,,*09
$IIBWC,094608,,,,,194.0,T,193.0,M,1.90,N,0*23
$IIDBT,8.3,f,2.53,M,1.38,F*14
$IIGGA,094608,4050.075,N,01415.194,E,1,05,3,8,M,47,M,,*4B
$IIGLL,4050.075,N,01415.194,E,094609,A*31
$IIHDG,040.0,,,1,E*39
$IIHDM,040.0,M*26
$IIHDT,041.0,T*27
$IIRSA,16,A,,V*50
$IIMWV,355.0,R,4.2,N,A*38
$IIMWV,355.0,T,4.2,N,A*3E
$PNATD,II,,A,A,A,,,,,,*22
$IIVHW,041.0,T,040.0,M,0.00,N,0.00,K*54
$IIVPW,0.00,N,0.00,M*52
$IIVWR,005.0,L,4.2,N,2.2,M,7.8,K*5B
$IIVWT,005.0,L,4.2,N,2.2,M,7.8,K*5D
$IIXTE,A,A,0.00,R,N*67
$IIAPB,A,A,0.00,R,N,,,,,0,193.0,M,,*09
$IIBWC,094610,,,,,194.0,T,193.0,M,1.90,N,0*2A
$IIDBT,8.3,f,2.53,M,1.38,F*14
$IIGGA,094610,4050.075,N,01415.194,E,1,05,3,8,M,47,M,,*42
$IIGLL,4050.075,N,01415.194,E,094610,A*39
$IIHDG,040.0,,,1,E*39
$IIHDM,040.0,M*26
$IIHDT,041.0,T*27
$IIRSA,16,A,,V*50
$IIMWV,005.0,R,4.5,N,A*39
$IIMWV,005.0,T,4.5,N,A*3F
$PNATD,II,,A,A,A,,,,,,*22
$IIVHW,041.0,T,040.0,M,0.00,N,0.00,K*54
$IIVPW,0.00,N,0.00,M*52
$IIVWR,001.5,R,4.1,N,2.1,M,7.6,K*4A
$IIVWT,001.5,R,4.1,N,2.1,M,7.6,K*4C
$IIXTE,A,A,0.00,R,N*67
$IIMWD,042.5,T,041.5,M,4.1,N,2.1,M*41
$IIVTG,078.0,T,077.0,M,0.0,N,0.0,K*56
$IIAPB,A,A,0.00,R,N,,,,,0,193.0,M,,*09
$IIBWC,094612,,,,,194.0,T,193.0,M,1.90,N,0*28
$IIDBT,8.6,f,2.62,M,1.43,F*1F
$IIGGA,094612,4050.075,N,01415.194,E,1,06,1,8,M,47,M,,*41
$IIGLL,4050.075,N,01415.194,E,094612,A*3B
$IIHDG,040.0,,,1,E*39
$IIHDM,040.0,M*26
$IIHDT,041.0,T*27
$IIRSA,16,A,,V*50
$IIMWV,345.0,R,4.1,N,A*3A
$IIMWV,345.0,T,4.1,N,A*3C
$PNATD,II,,A,A,A,,,,,,*22
$IIVHW,041.0,T,040.0,M,0.00,N,0.00,K*54
$IIVPW,0.00,N,0.00,M*52
$IIVWR,015.0,L,4.1,N,2.1,M,7.6,K*54
$IIVWT,013.5,L,4.8,N,2.5,M,8.9,K*5C
$IIXTE,A,A,0.00,R,N*67
$IIAPB,A,A,0.00,R,N,,,,,0,193.0,M,,*09
$IIBWC,094614,,,,,194.0,T,193.0,M,1.90,N,0*2E
$IIDBT,8.4,f,2.56,M,1.40,F*19
$IIGGA,094614,4050.075,N,01415.194,E,1,06,1,8,M,47,M,,*47
$IIGLL,4050.075,N,01415.194,E,094614,A*3D
$IIHDG,040.0,,,1,E*39
$IIHDM,040.0,M*26
$IIHDT,041.0,T*27
$IIRSA,16,A,,V*50
$IIMWV,353.5,R,5.3,N,A*3B
$IIMWV,353.5,T,5.3,N,A*3D
$PNATD,II,,A,A,A,,,,,,*22
$IIVHW,041.0,T,040.0,M,0.00,N,0.00,K*54
$IIVPW,0.00,N,0.00,M*52
$IIVWR,029.0,L,5.2,N,2.7,M,9.6,K*51
$IIVWT,029.0,L,5.2,N,2.7,M,9.6,K*57
$IIXTE,A,A,0.00,R,N*67
$IIGSA,,3,06,30,21,05,15,16,,,,,,,,1,*7B
$IIGSV,2,1,24,06,75,008,42,30,54,109,43,21,43,181,40,05,25,118,41*6B
$IIGSV,2,2,24,15,18,195,41,10,14,078,,16,12,302,33,01,06,259,*6A
$IIMTW,15.0,C*17
$IIZDA,094616,14,01,2006,,*53
$IIHVM,1,E*27
$IIZTG,094616,,0*59
$IIMWD,004.0,T,003.0,M,5.0,N,2.6,M*42
$IIVTG,078.0,T,077.0,M,0.0,N,0.0,K*56
$IIAPB,A,A,0.00,R,N,,,,,0,193.0,M,,*09
$IIBWC,094617,,,,,194.0,T,193.0,M,1.90,N,0*2D
$IIDBT,8.3,f,2.53,M,1.38,F*14
$IIGGA,094617,4050.075,N,01415.194,E,1,06,1,11,M,47,M,,*7C
$IIGLL,4050.075,N,01415.194,E,094617,A*3E
$IIHDG,039.0,,,1,E*37
$IIHDM,040.0,M*26
$IIHDT,041.0,T*27
$IIRSA,16,A,,V*50
$IIMWV,291.5,R,4.2,N,A*34
$IIMWV,291.5,T,4.2,N,A*32
$PNATD,II,,A,A,A,,,,,,*22
$IIVHW,041.0,T,040.0,M,0.00,N,0.00,K*54
$IIVPW,0.00,N,0.00,M*52
$IIVWR,036.0,L,4.0,N,2.1,M,7.4,K*56
$IIVWT,036.0,L,4.0,N,2.1,M,7.4,K*50
$IIXTE,A,A,0.00,R,N*67
$IIAPB,A,A,0.00,R,N,,,,,0,193.0,M,,*09
$IIBWC,094618,,,,,194.0,T,193.0,M,1.90,N,0*22
$IIDBT,8.4,f,2.56,M,1.40,F*19
$IIGGA,094618,4050.075,N,01415.194,E,1,06,1,11,M,47,M,,*73
$IIGLL,4050.075,N,01415.194,E,094619,A*30
$IIHDG,039.0,,,1,E*37
$IIHDM,039.0,M*28
$IIHDT,040.0,T*26
$IIRSA,16,A,,V*50
$IIMWV,320.5,R,3.5,N,A*3F
$IIMWV,320.5,T,3.5,N,A*39
$PNATD,II,,A,A,A,,,,,,*22
$IIVHW,040.0,T,039.0,M,0.00,N,0.00,K*5B
$IIVPW,0.00,N,0.00,M*52
$IIVWR,039.5,L,3.5,N,1.8,M,6.5,K*54
$IIVWT,039.5,L,3.5,N,1.8,M,6.5,K*52
$IIXTE,A,A,0.00,R,N*67
$IIAPB,A,A,0.00,R,N,,,,,0,193.0,M,,*09
$IIBWC,094620,,,,,194.0,T,193.0,M,1.90,N,0*29
$IIDBT,8.3,f,2.53,M,1.38,F*14
$IIGGA,094620,4050.075,N,01415.194,E,1,06,1,11,M,47,M,,*78
$IIGLL,4050.075,N,01415.194,E,094620,A*3A
$IIHDG,039.0,,,1,E*37
$IIHDM,039.0,M*28
$IIHDT,040.0,T*26
$IIRSA,16,A,,V*50
$IIMWV,267.0,R,3.4,N,A*39
$IIMWV,267.0,T,3.4,N,A*3F
$PNATD,II,,A,A,A,,,,,,*22
$IIVHW,040.0,T,039.0,M,0.00,N,0.00,K*5B
$IIVPW,0.00,N,0.00,M*52
$IIVWR,093.0,L,3.4,N,1.8,M,6.3,K*56
$IIVWT,093.0,L,3.4,N,1.8,M,6.3,K*50
$IIXTE,A,A,0.00,R,N*67
$IIMWD,307.0,T,306.0,M,3.4,N,1.8,M*4B
$IIVTG,078.0,T,077.0,M,0.0,N,0.0,K*56
$IIAPB,A,A,0.00,R,N,,,,,0,193.0,M,,*09
$IIBWC,094622,,,,,194.0,T,193.0,M,1.90,N,0*2B
$IIDBT,8.3,f,2.53,M,1.38,F*14
$IIGGA,094622,4050.075,N,01415.194,E,1,06,1,11,M,47,M,,*7A
$IIGLL,4050.075,N,01415.194,E,094622,A*38
$IIHDG,040.0,,,1,E*39
$IIHDM,039.5,M*2D
$IIHDT,040.5,T*23
$IIRSA,16,A,,V*50
$IIMWV,306.5,R,3.8,N,A*36
$IIMWV,338.0,T,3.8,N,A*38
$PNATD,II,,A,A,A,,,,,,*22
$IIVHW,040.5,T,039.5,M,0.00,N,0.00,K*5B
$IIVPW,0.00,N,0.00,M*52
$IIVWR,022.0,L,4.1,N,2.1,M,7.6,K*50
$IIVWT,022.0,L,4.1,N,2.1,M,7.6,K*56
$IIXTE,A,A,0.00,R,N*67
$IIAPB,A,A,0.00,R,N,,,,,0,193.0,M,,*09
$IIBWC,094624,,,,,194.0,T,193.0,M,1.90,N,0*2D
$IIDBT,8.4,f,2.56,M,1.40,F*19
$IIGGA,094624,4050.075,N,01415.194,E,1,05,3,11,M,47,M,,*7D
$IIGLL,4050.075,N,01415.194,E,094624,A*3E
$IIHDG,039.0,,,1,E*37
$IIHDM,039.0,M*28
$IIHDT,040.0,T*26
$IIRSA,16,A,,V*50
$IIMWV,341.0,R,4.4,N,A*3B
$IIMWV,341.0,T,4.4,N,A*3D
$PNATD,II,,A,A,A,,,,,,*22
$IIVHW,040.0,T,039.0,M,0.00,N,0.00,K*5B
$IIVPW,0.00,N,0.00,M*52
$IIVWR,013.5,L,4.6,N,2.4,M,8.5,K*59
$IIVWT,013.5,L,4.6,N,2.4,M,8.5,K*5F
$IIXTE,A,A,0.00,R,N*67
$IIGSA,,3,06,30,21,05,15,16,,,,,,,,3,*79
$IIGSV,2,1,22,06,74,010,39,30,53,109,41,21,43,181,40,05,25,118,41*6C
$IIGSV,2,2,22,15,18,195,45,10,14,077,*6B
$IIMTW,15.0,C*17
$IIZDA,094626,14,01,2006,,*50
$IIHVM,1,E*27
$IIZTG,094626,,0*5A
$IIMWD,358.0,T,357.0,M,4.8,N,2.5,M*40
$IIVTG,078.0,T,077.0,M,0.0,N,0.0,K*56
$IIAPB,A,A,0.00,R,N,,,,,0,193.0,M,,*09
$IIBWC,094627,,,,,194.0,T,193.0,M,1.90,N,0*2E
$IIDBT,8.4,f,2.56,M,1.40,F*19
$IIGGA,094627,4050.075,N,01415.194,E,1,05,3,12,M,47,M,,*7D
$IIGLL,4050.075,N,01415.194,E,094627,A*3D
$IIHDG,041.0,,,1,E*38
$IIHDM,041.0,M*27
$IIHDT,041.0,T*27
$IIRSA,16,A,,V*50
$IIMWV,351.5,R,5.0,N,A*3A
$IIMWV,351.5,T,5.0,N,A*3C
$PNATD,II,,A,A,A,,,,,,*22
$IIVHW,041.0,T,040.0,M,0.00,N,0.00,K*54
$IIVPW,0.00,N,0.00,M*52
$IIVWR,008.5,L,5.0,N,2.6,M,9.3,K*51
$IIVWT,008.5,L,5.0,N,2.6,M,9.3,K*57
$IIXTE,A,A,0.00,R,N*67
$IIAPB,A,A,0.00,R,N,,,,,0,193.0,M,,*09
$IIBWC,094628,,,,,194.0,T,193.0,M,1.90,N,0*21
$IIDBT,8.7,f,2.65,M,1.45,F*1F
$IIGGA,094628,4050.075,N,01415.194,E,1,06,1,12,M,47,M,,*73
$IIGLL,4050.075,N,01415.194,E,094629,A*33
$IIHDG,040.0,,,1,E*39
$IIHDM,040.0,M*26
$IIHDT,041.0,T*27
$IIRSA,16,A,,V*50
$IIMWV,320.0,R,4.2,N,A*3A
$IIMWV,320.0,T,4.2,N,A*3C
$PNATD,II,,A,A,A,,,,,,*22
$IIVHW,041.0,T,040.0,M,0.00,N,0.00,K*54
$IIVPW,0.00,N,0.00,M*52
$IIVWR,030.5,L,3.5,N,1.8,M,6.5,K*5D
$IIVWT,030.5,L,3.5,N,1.8,M,6.5,K*5B
$IIXTE,A,A,0.00,R,N*67
$IIAPB,A,A,0.00,R,N,,,,,0,193.0,M,,*09
$IIBWC,094630,,,,,194.0,T,193.0,M,1.90,N,0*28
$IIDBT,9.0,f,2.74,M,1.50,F*1D
$IIGGA,094630,4050.075,N,01415.194,E,1,05,3,12,M,47,M,,*7B
$IIGLL,4050.075,N,01415.194,E,094630,A*3B
$IIHDG,039.0,,,1,E*37
$IIHDM,039.5,M*2D
$IIHDT,040.5,T*23
$IIRSA,16,A,,V*50
$IIMWV,339.5,R,3.3,N,A*31
$IIMWV,339.5,T,3.3,N,A*37
$PNATD,II,,A,A,A,,,,,,*22
$IIVHW,040.5,T,039.5,M,0.00,N,0.00,K*5B
$IIVPW,0.00,N,0.00,M*52
$IIVWR,020.5,L,3.3,N,1.7,M,6.1,K*51
$IIVWT,020.5,L,3.3,N,1.7,M,6.1,K*57
$IIXTE,A,A,0.00,R,N*67
$IIMWD,041.5,T,040.5,M,3.7,N,1.9,M*49
$IIVTG,078.0,T,077.0,M,0.0,N,0.0,K*56
$IIAPB,A,A,0.00,R,N,,,,,0,193.0,M,,*09
$IIBWC,094632,,,,,194.0,T,193.0,M,1.90,N,0*2A
$IIDBT,8.4,f,2.56,M,1.40,F*19
$IIGGA,094632,4050.075,N,01415.194,E,1,06,1,12,M,47,M,,*78
$IIGLL,4050.075,N,01415.194,E,094632,A*39
$IIHDG,039.0,,,1,E*37
$IIHDM,039.0,M*28
$IIHDT,040.0,T*26
$IIRSA,16,A,,V*50
$IIMWV,008.5,R,4.3,N,A*37
$IIMWV,008.5,T,4.3,N,A*31
$PNATD,II,,A,A,A,,,,,,*22
$IIVHW,040.0,T,039.0,M,0.00,N,0.00,K*5B
$IIVPW,0.00,N,0.00,M*52
$IIVWR,008.5,R,4.3,N,2.2,M,8.0,K*4B
$IIVWT,008.5,R,4.3,N,2.2,M,8.0,K*4D
$IIXTE,A,A,0.00,R,N*67
$IIAPB,A,A,0.00,R,N,,,,,0,193.0,M,,*09
$IIBWC,094634,,,,,194.0,T,193.0,M,1.90,N,0*2C
$IIDBT,8.6,f,2.62,M,1.43,F*1F
$IIGGA,094634,4050.075,N,01415.194,E,1,06,1,12,M,47,M,,*7E
$IIGLL,4050.075,N,01415.194,E,094634,A*3F
$IIHDG,039.0,,,1,E*37
$IIHDM,039.0,M*28
$IIHDT,040.0,T*26
$IIRSA,16,A,,V*50
$IIMWV,343.5,R,5.7,N,A*3E
$IIMWV,343.5,T,5.7,N,A*38
$PNATD,II,,A,A,A,,,,,,*22
$IIVHW,040.0,T,039.0,M,0.00,N,0.00,K*5B
$IIVPW,0.00,N,0.00,M*52
$IIVWR,016.5,L,5.7,N,2.9,M,10.6,K*6B
$IIVWT,016.5,L,5.7,N,2.9,M,10.6,K*6D
$IIXTE,A,A,0.00,R,N*67
$IIGSA,,3,06,30,21,05,15,,,,,,,,,1,*7C
$IIGSV,2,1,20,06,74,010,41,30,53,109,41,21,43,181,39,05,25,118,41*6F
$IIGSV,2,2,20,15,18,195,46,10,14,077,,16,12,302,00,01,06,259,*66
$IIMTW,15.0,C*17
$IIZDA,094636,14,01,2006,,*51
$IIHVM,1,E*27
$IIZTG,094636,,0*5B
$IIMWD,036.5,T,035.5,M,5.6,N,2.9,M*4F
$IIVTG,078.0,T,077.0,M,0.0,N,0.0,K*56
$IIAPB,A,A,0.00,R,N,,,,,0,193.0,M,,*09
$IIBWC,094637,,,,,194.0,T,193.0,M,1.90,N,0*2F
$IIDBT,8.3,f,2.53,M,1.38,F*14
$IIGGA,094637,4050.075,N,01415.194,E,1,06,1,13,M,47,M,,*7C
$IIGLL,4050.075,N,01415.194,E,094637,A*3C
$IIHDG,039.0,,,1,E*37
$IIHDM,039.0,M*28
$IIHDT,041.0,T*27
$IIRSA,16,A,,V*50
$IIMWV,353.0,R,5.4,N,A*39
$IIMWV,353.0,T,5.4,N,A*3F
$PNATD,II,,A,A,A,,,,,,*22
$IIVHW,041.0,T,040.0,M,0.00,N,0.00,K*54
$IIVPW,0.00,N,0.00,M*52
$IIVWR,007.0,L,5.4,N,2.8,M,10.0,K*6A
$IIVWT,002.5,R,5.4,N,2.8,M,10.0,K*72
$IIXTE,A,A,0.00,R,N*67
$IIAPB,A,A,0.00,R,N,,,,,0,193.0,M,,*09
$IIBWC,094638,,,,,194.0,T,193.0,M,1.90,N,0*20
$IIDBT,8.2,f,2.50,M,1.36,F*18
$IIGGA,094638,4050.075,N,01415.194,E,1,06,1,13,M,47,M,,*73
$IIGLL,4050.075,N,01415.194,E,094639,A*32
$IIHDG,040.0,,,1,E*39
$IIHDM,040.0,M*26
$IIHDT,041.0,T*27
$IIRSA,16,A,,V*50
$IIMWV,001.0,R,4.9,N,A*31
$IIMWV,001.0,T,4.9,N,A*37
$PNATD,II,,A,A,A,,,,,,*22
$IIVHW,041.0,T,040.0,M,0.00,N,0.00,K*54
$IIVPW,0.00,N,0.00,M*52
$IIVWR,001.0,R,4.9,N,2.5,M,9.1,K*4A
$IIVWT,001.0,R,4.9,N,2.5,M,9.1,K*4C
$IIXTE,A,A,0.00,R,N*67
$IIAPB,A,A,0.00,R,N,,,,,0,193.0,M,,*09
$IIBWC,094640,,,,,194.0,T,193.0,M,1.90,N,0*2F
$IIDBT,8.5,f,2.59,M,1.41,F*16
$IIGGA,094640,4050.075,N,01415.194,E,1,06,1,13,M,47,M,,*7C
$IIGLL,4050.075,N,01415.194,E,094640,A*3C
$IIHDG,040.5,,,1,E*3C
$IIHDM,040.0,M*26
$IIHDT,041.0,T*27
$IIRSA,16,A,,V*50
$IIMWV,332.0,R,4.3,N,A*38
$IIMWV,332.0,T,4.3,N,A*3E
$PNATD,II,,A,A,A,,,,,,*22
$IIVHW,041.0,T,040.0,M,0.00,N,0.00,K*54
$IIVPW,0.00,N,0.00,M*52
$IIVWR,025.0,L,4.6,N,2.4,M,8.5,K*59
$IIVWT,025.0,L,4.6,N,2.4,M,8.5,K*5F
$IIXTE,A,A,0.00,R,N*67
$IIMWD,016.0,T,015.0,M,4.6,N,2.4,M*43
$IIVTG,078.0,T,077.0,M,0.0,N,0.0,K*56
$IIAPB,A,A,0.00,R,N,,,,,0,193.0,M,,*09
$IIBWC,094642,,,,,194.0,T,193.0,M,1.90,N,0*2D
$IIDBT,8.3,f,2.53,M,1.38,F*14
$IIGGA,094642,4050.075,N,01415.194,E,1,05,3,13,M,47,M,,*7F
$IIGLL,4050.075,N,01415.194,E,094642,A*3E
$IIHDG,040.0,,,1,E*39
$IIHDM,040.0,M*26
$IIHDT,041.0,T*27
$IIRSA,16,A,,V*50
$IIMWV,312.0,R,4.6,N,A*3F
$IIMWV,312.0,T,4.6,N,A*39
$PNATD,II,,A,A,A,,,,,,*22
$IIVHW,041.0,T,040.0,M,0.00,N,0.00,K*54
$IIVPW,0.00,N,0.00,M*52
$IIVWR,043.0,L,4.5,N,2.3,M,8.3,K*5B
$IIVWT,043.0,L,4.5,N,2.3,M,8.3,K*5D
$IIXTE,A,A,0.00,R,N*67
$IIAPB,A,A,0.00,R,N,,,,,0,193.0,M,,*09
$IIBWC,094644,,,,,194.0,T,193.0,M,1.90,N,0*2B
$IIDBT,8.6,f,2.62,M,1.43,F*1F
$IIGGA,094644,4050.075,N,01415.194,E,1,05,3,13,M,47,M,,*79
$IIGLL,4050.075,N,01415.194,E,094644,A*38
$IIHDG,041.0,,,1,E*38
$IIHDM,041.0,M*27
$IIHDT,042.0,T*24
$IIRSA,16,A,,V*50
$IIMWV,341.5,R,4.4,N,A*3E
$IIMWV,341.5,T,4.4,N,A*38
$PNATD,II,,A,A,A,,,,,,*22
$IIVHW,041.5,T,040.5,M,0.00,N,0.00,K*54
$IIVPW,0.00,N,0.00,M*52
$IIVWR,012.0,L,4.5,N,2.3,M,8.3,K*5F
$IIVWT,012.0,L,4.5,N,2.3,M,8.3,K*59
$IIXTE,A,A,0.00,R,N*67
$IIGSA,,3,06,30,21,05,15,,,,,,,,,1,*7C
$IIGSV,2,1,24,06,74,010,42,30,53,109,42,21,43,181,43,05,25,118,42*65
$IIGSV,2,2,24,15,18,195,43,10,14,077,,16,12,302,26,01,06,259,*63
$IIMTW,15.0,C*17
$IIZDA,094646,14,01,2006,,*56
$IIHVM,1,E*27
$IIZTG,094646,,0*5C
$IIMWD,023.5,T,022.5,M,4.4,N,2.3,M*44
$IIVTG,078.0,T,077.0,M,0.0,N,0.0,K*56
$IIAPB,A,A,0.00,R,N,,,,,0,193.0,M,,*09
$IIBWC,094647,,,,,194.0,T,193.0,M,1.90,N,0*28
$IIDBT,8.5,f,2.59,M,1.41,F*16
$IIGGA,094647,4050.075,N,01415.194,E,1,06,1,13,M,47,M,,*7B
$IIGLL,4050.075,N,01415.194,E,094647,A*3B
$IIHDG,041.0,,,1,E*38
$IIHDM,041.0,M*27
$IIHDT,042.0,T*24
$IIRSA,15,A,,V*53
$IIMWV,345.0,R,4.4,N,A*3F
$IIMWV,345.0,T,4.4,N,A*39
$PNATD,II,,A,A,A,,,,,,*22
$IIVHW,042.0,T,041.0,M,0.00,N,0.00,K*56
$IIVPW,0.00,N,0.00,M*52
$IIVWR,014.5,L,4.3,N,2.2,M,8.0,K*58
$IIVWT,014.5,L,4.3,N,2.2,M,8.0,K*5E
$IIXTE,A,A,0.00,R,N*67
$IIAPB,A,A,0.00,R,N,,,,,0,193.0,M,,*09
$IIBWC,094648,,,,,194.0,T,193.0,M,1.90,N,0*27
$IIDBT,8.3,f,2.53,M,1.38,F*14
$IIGGA,094648,4050.075,N,01415.194,E,1,05,3,13,M,47,M,,*75
$IIGLL,4050.075,N,01415.194,E,094649,A*35
$IIHDG,041.0,,,1,E*38
$IIHDM,041.0,M*27
$IIHDT,041.0,T*27
$IIRSA,16,A,,V*50
$IIMWV,358.0,R,4.3,N,A*34
$IIMWV,358.0,T,4.3,N,A*32
$PNATD,II,,A,A,A,,,,,,*22
$IIVHW,041.0,T,040.0,M,0.00,N,0.00,K*54
$IIVPW,0.00,N,0.00,M*52
$IIVWR,002.0,L,4.3,N,2.2,M,8.0,K*5A
$IIVWT,002.0,L,4.3,N,2.2,M,8.0,K*5C
$IIXTE,A,A,0.00,R,N*67
$IIAPB,A,A,0.00,R,N,,,,,0,193.0,M,,*09
$IIBWC,094650,,,,,194.0,T,193.0,M,1.90,N,0*2E
$IIDBT,8.3,f,2.53,M,1.38,F*14
$IIGGA,094650,4050.075,N,01415.194,E,1,06,1,13,M,47,M,,*7D
$IIGLL,4050.075,N,01415.194,E,094650,A*3D
$IIHDG,039.5,,,1,E*32
$IIHDM,039.5,M*2D
$IIHDT,041.0,T*27
$IIRSA,16,A,,V*50
$IIMWV,328.5,R,3.9,N,A*3B
$IIMWV,328.5,T,4.2,N,A*31
$PNATD,II,,A,A,A,,,,,,*22
$IIVHW,041.0,T,040.0,M,0.00,N,0.00,K*54
$IIVPW,0.00,N,0.00,M*52
$IIVWR,031.5,L,4.2,N,2.2,M,7.8,K*59
$IIVWT,031.5,L,4.2,N,2.2,M,7.8,K*5F
$IIXTE,A,A,0.00,R,N*67
$IIMWD,009.5,T,008.5,M,4.2,N,2.2,M*43
$IIVTG,078.0,T,077.0,M,0.0,N,0.0,K*56
$IIAPB,A,A,0.00,R,N,,,,,0,193.0,M,,*09
$IIBWC,094652,,,,,194.0,T,193.0,M,1.90,N,0*2C
$IIDBT,8.3,f,2.53,M,1.38,F*14
$IIGGA,094652,4050.075,N,01415.194,E,1,06,1,13,M,47,M,,*7F
$IIGLL,4050.075,N,01415.194,E,094652,A*3F
$IIHDG,041.0,,,1,E*38
$IIHDM,041.0,M*27
$IIHDT,042.0,T*24
$IIRSA,16,A,,V*50
$IIMWV,326.0,R,4.7,N,A*39
$IIMWV,326.0,T,4.7,N,A*3F
$PNATD,II,,A,A,A,,,,,,*22
$IIVHW,042.0,T,041.0,M,0.00,N,0.00,K*56
$IIVPW,0.00,N,0.00,M*52
$IIVWR,010.0,L,4.8,N,2.5,M,8.9,K*5C
$IIVWT,010.0,L,4.8,N,2.5,M,8.9,K*5A
$IIXTE,A,A,0.00,R,N*67
$IIAPB,A,A,0.00,R,N,,,,,0,193.0,M,,*09
$IIBWC,094654,,,,,194.0,T,193.0,M,1.90,N,0*2A
$IIDBT,8.5,f,2.59,M,1.41,F*16
$IIGGA,094654,4050.075,N,01415.194,E,1,05,3,13,M,47,M,,*78
$IIGLL,4050.075,N,01415.194,E,094654,A*39
$IIHDG,040.0,,,1,E*39
$IIHDM,040.0,M*26
$IIHDT,041.0,T*27
$IIRSA,16,A,,V*50
$IIMWV,342.5,R,4.3,N,A*3A
$IIMWV,342.5,T,4.0,N,A*3F
$PNATD,II,,A,A,A,,,,,,*22
$IIVHW,041.0,T,040.0,M,0.00,N,0.00,K*54
$IIVPW,0.00,N,0.00,M*52
$IIVWR,017.5,L,4.0,N,2.1,M,7.4,K*50
$IIVWT,017.5,L,4.0,N,2.1,M,7.4,K*56
$IIXTE,A,A,0.00,R,N*67
$IIGSA,,3,06,30,21,05,15,16,,,,,,,,3,*79
$IIGSV,2,1,24,06,74,010,41,30,53,109,42,21,43,181,41,05,25,118,39*68
$IIGSV,2,2,24,15,18,195,45,10,14,077,,16,12,302,31,01,06,259,*63
$IIMTW,15.0,C*17
$IIZDA,094656,14,01,2006,,*57
$IIHVM,1,E*27
$IIZTG,094656,,0*5D
$IIMWD,013.5,T,012.5,M,3.9,N,2.0,M*4D
$IIVTG,078.0,T,077.0,M,0.0,N,0.0,K*56
$IIAPB,A,A,0.00,R,N,,,,,0,193.0,M,,*09
$IIBWC,094657,,,,,194.0,T,193.0,M,1.90,N,0*29
$IIDBT,8.3,f,2.53,M,1.38,F*14
$IIGGA,094657,4050.075,N,01415.194,E,1,05,3,14,M,47,M,,*7C
$IIGLL,4050.075,N,01415.194,E,094657,A*3A
$IIHDG,041.5,,,1,E*3D
$IIHDM,041.5,M*22
$IIHDT,042.5,T*21
$IIRSA,16,A,,V*50
$IIMWV,356.5,R,3.9,N,A*32
$IIMWV,356.5,T,3.9,N,A*34
$PNATD,II,,A,A,A,,,,,,*22
$IIVHW,042.5,T,041.5,M,0.00,N,0.00,K*56
$IIVPW,0.00,N,0.00,M*52
$IIVWR,003.5,L,3.9,N,2.0,M,7.2,K*5C
$IIVWT,003.5,L,3.9,N,2.0,M,7.2,K*5A
$IIXTE,A,A,0.00,R,N*67
$IIAPB,A,A,0.00,R,N,,,,,0,193.0,M,,*09
$IIBWC,094658,,,,,194.0,T,193.0,M,1.90,N,0*26
$IIDBT,8.6,f,2.62,M,1.43,F*1F
$IIGGA,094658,4050.075,N,01415.194,E,1,06,1,14,M,47,M,,*72
$IIGLL,4050.075,N,01415.194,E,094659,A*34
$IIHDG,040.5,,,1,E*3C
$IIHDM,040.5,M*23
$IIHDT,041.5,T*22
$IIRSA,16,A,,V*50
$IIMWV,337.0,R,4.0,N,A*3E
$IIMWV,337.0,T,4.0,N,A*38
$PNATD,II,,A,A,A,,,,,,*22
$IIVHW,041.5,T,040.5,M,0.00,N,0.00,K*54
$IIVPW,0.00,N,0.00,M*52
$IIVWR,058.5,L,3.7,N,1.9,M,6.9,K*5C
$IIVWT,058.5,L,3.7,N,1.9,M,6.9,K*5A
$IIXTE,A,A,0.00,R,N*67
$IIAPB,A,A,0.00,R,N,,,,,0,193.0,M,,*09
$IIBWC,094700,,,,,194.0,T,193.0,M,1.90,N,0*2A
$IIDBT,8.3,f,2.53,M,1.38,F*14
$IIGGA,094700,4050.075,N,01415.194,E,1,05,3,14,M,47,M,,*7F
$IIGLL,4050.075,N,01415.194,E,094700,A*39
$IIHDG,041.0,,,1,E*38
$IIHDM,041.0,M*27
$IIHDT,042.0,T*24
$IIRSA,16,A,,V*50
$IIMWV,340.0,R,4.5,N,A*3B
$IIMWV,340.0,T,4.5,N,A*3D
$PNATD,II,,A,A,A,,,,,,*22
$IIVHW,042.5,T,041.5,M,0.00,N,0.00,K*56
$IIVPW,0.00,N,0.00,M*52
$IIVWR,020.0,L,4.5,N,2.3,M,8.3,K*5E
$IIVWT,020.0,L,4.5,N,2.3,M,8.3,K*58
$IIXTE,A,A,0.00,R,N*67
$IIMWD,022.5,T,021.5,M,4.5,N,2.3,M*47
$IIVTG,078.0,T,077.0,M,0.0,N,0.0,K*56
$IIAPB,A,A,0.00,R,N,,,,,0,193.0,M,,*09
$IIBWC,094702,,,,,194.0,T,193.0,M,1.90,N,0*28
$IIDBT,8.3,f,2.53,M,1.38,F*14
$IIGGA,094702,4050.075,N,01415.194,E,1,06,1,14,M,47,M,,*7C
$IIGLL,4050.075,N,01415.194,E,094702,A*3B
$IIHDG,040.5,,,1,E*3C
$IIHDM,040.5,M*23
$IIHDT,041.5,T*22
$IIRSA,16,A,,V*50
$IIMWV,014.0,R,4.1,N,A*3D
$IIMWV,014.0,T,4.1,N,A*3B
$PNATD,II,,A,A,A,,,,,,*22
$IIVHW,041.0,T,040.0,M,0.00,N,0.00,K*54
$IIVPW,0.00,N,0.00,M*52
$IIVWR,014.0,R,4.1,N,2.1,M,7.6,K*4B
$IIVWT,014.0,R,4.1,N,2.1,M,7.6,K*4D
$IIXTE,A,A,0.00,R,N*67
$IIAPB,A,A,0.00,R,N,,,,,0,193.0,M,,*09
$IIBWC,094704,,,,,194.0,T,193.0,M,1.90,N,0*2E
$IIDBT,8.7,f,2.65,M,1.45,F*1F
$IIGGA,094704,4050.075,N,01415.194,E,1,06,1,14,M,47,M,,*7A
$IIGLL,4050.075,N,01415.194,E,094704,A*3D
$IIHDG,040.0,,,1,E*39
$IIHDM,040.0,M*26
$IIHDT,041.0,T*27
$IIRSA,16,A,,V*50
$IIMWV,331.5,R,3.4,N,A*3E
$IIMWV,331.5,T,3.4,N,A*38
$PNATD,II,,A,A,A,,,,,,*22
$IIVHW,042.0,T,041.0,M,0.00,N,0.00,K*56
$IIVPW,0.00,N,0.00,M*52
$IIVWR,028.5,L,3.4,N,1.8,M,6.3,K*53
$IIVWT,028.5,L,3.4,N,1.8,M,6.3,K*55
$IIXTE,A,A,0.00,R,N*67
$IIGSA,,3,06,30,21,05,15,,,,,,,,,1,*7C
$IIGSV,2,1,24,06,74,010,41,30,53,109,40,21,43,181,41,05,25,118,39*6A
$IIGSV,2,2,24,15,18,195,44,10,14,077,,16,12,302,,01,06,259,*60
$IIMTW,15.0,C*17
$IIZDA,094706,14,01,2006,,*53
$IIHVM,1,E*27
$IIZTG,094706,,0*59
$IIMWD,038.5,T,037.5,M,3.2,N,1.6,M*4D
$IIVTG,078.0,T,077.0,M,0.0,N,0.0,K*56
$IIAPB,A,A,0.00,R,N,,,,,0,193.0,M,,*09
$IIBWC,094707,,,,,194.0,T,193.0,M,1.90,N,0*2D
$IIDBT,8.2,f,2.50,M,1.36,F*18
$IIGGA,094707,4050.075,N,01415.194,E,1,06,1,13,M,47,M,,*7E
$IIGLL,4050.075,N,01415.194,E,094707,A*3E
$IIHDG,040.5,,,1,E*3C
$IIHDM,040.5,M*23
$IIHDT,041.5,T*22
$IIRSA,16,A,,V*50
$IIMWV,001.0,R,3.1,N,A*3E
$IIMWV,001.0,T,3.1,N,A*38
$PNATD,II,,A,A,A,,,,,,*22
$IIVHW,041.0,T,040.0,M,0.00,N,0.00,K*54
$IIVPW,0.00,N,0.00,M*52
$IIVWR,001.0,R,3.1,N,1.6,M,5.7,K*4F
$IIVWT,001.0,R,3.1,N,1.6,M,5.7,K*49
$IIXTE,A,A,0.00,R,N*67
$IIAPB,A,A,0.00,R,N,,,,,0,193.0,M,,*09
$IIBWC,094708,,,,,194.0,T,193.0,M,1.90,N,0*22
$IIDBT,8.2,f,2.50,M,1.36,F*18
$IIGGA,094708,4050.075,N,01415.194,E,1,06,1,13,M,47,M,,*71
$IIGLL,4050.075,N,01415.194,E,094709,A*30
$IIHDG,041.0,,,1,E*38
$IIHDM,041.0,M*27
$IIHDT,042.0,T*24
$IIRSA,16,A,,V*50
$IIMWV,358.5,R,3.1,N,A*34
$IIMWV,358.5,T,3.1,N,A*32
$PNATD,II,,A,A,A,,,,,,*22
$IIVHW,042.5,T,041.5,M,0.00,N,0.00,K*56
$IIVPW,0.00,N,0.00,M*52
$IIVWR,001.5,L,3.1,N,1.6,M,5.7,K*54
$IIVWT,001.5,L,3.1,N,1.6,M,5.7,K*52
$IIXTE,A,A,0.00,R,N*67
$IIAPB,A,A,0.00,R,N,,,,,0,193.0,M,,*09
$IIBWC,094710,,,,,194.0,T,193.0,M,1.90,N,0*2B
$IIDBT,8.5,f,2.59,M,1.41,F*16
$IIGGA,094710,4050.075,N,01415.194,E,1,06,1,13,M,47,M,,*78
$IIGLL,4050.075,N,01415.194,E,094710,A*38
$IIHDG,041.5,,,1,E*3D
$IIHDM,041.5,M*22
$IIHDT,042.5,T*21
$IIRSA,16,A,,V*50
$IIMWV,000.5,R,3.3,N,A*38
$IIMWV,000.5,T,3.3,N,A*3E
$PNATD,II,,A,A,A,,,,,,*22
$IIVHW,042.5,T,041.5,M,0.00,N,0.00,K*56
$IIVPW,0.00,N,0.00,M*52
$IIVWR,000.5,R,3.3,N,1.7,M,6.1,K*4D
$IIVWT,027.5,R,3.4,N,1.8,M,6.3,K*44
$IIXTE,A,A,0.00,R,N*67
$IIMWD,069.5,T,068.5,M,3.4,N,1.8,M*4B
$IIVTG,078.0,T,077.0,M,0.0,N,0.0,K*56
$IIAPB,A,A,0.00,R,N,,,,,0,193.0,M,,*09
$IIBWC,094712,,,,,194.0,T,193.0,M,1.90,N,0*29
$IIDBT,8.7,f,2.65,M,1.45,F*1F
$IIGGA,094712,4050.075,N,01415.194,E,1,06,1,13,M,47,M,,*7A
$IIGLL,4050.075,N,01415.194,E,094712,A*3A
$IIHDG,040.0,,,1,E*39
$IIHDM,040.0,M*26
$IIHDT,041.0,T*27
$IIRSA,16,A,,V*50
$IIMWV,008.5,R,3.6,N,A*35
$IIMWV,008.5,T,3.6,N,A*33
$PNATD,II,,A,A,A,,,,,,*22
$IIVHW,041.5,T,040.5,M,0.00,N,0.00,K*54
$IIVPW,0.00,N,0.00,M*52
$IIVWR,008.5,R,3.6,N,1.9,M,6.7,K*48
$IIVWT,010.0,R,3.6,N,1.9,M,6.7,K*42
$IIXTE,A,A,0.00,R,N*67
$IIAPB,A,A,0.00,R,N,,,,,0,193.0,M,,*09
$IIBWC,094714,,,,,194.0,T,193.0,M,1.90,N,0*2F
$IIDBT,8.2,f,2.50,M,1.36,F*18
$IIGGA,094714,4050.075,N,01415.194,E,1,06,1,13,M,47,M,,*7C
$IIGLL,4050.075,N,01415.194,E,094714,A*3C
$IIHDG,041.0,,,1,E*38
$IIHDM,041.0,M*27
$IIHDT,042.0,T*24
$IIRSA,16,A,,V*50
$IIMWV,350.0,R,3.2,N,A*3A
$IIMWV,350.0,T,3.2,N,A*3C
$PNATD,II,,A,A,A,,,,,,*22
$IIVHW,042.0,T,041.0,M,0.00,N,0.00,K*56
$IIVPW,0.00,N,0.00,M*52
$IIVWR,010.0,L,3.2,N,1.6,M,5.9,K*5C
$IIVWT,044.0,R,3.2,N,1.6,M,5.9,K*45
$IIXTE,A,A,0.00,R,N*67
$IIGSA,,3,06,30,21,05,15,16,,,,,,,,1,*7B
$IIGSV,2,1,24,06,74,010,42,30,53,109,41,21,43,181,42,05,25,118,41*64
$IIGSV,2,2,24,15,18,195,44,10,14,077,,16,12,302,33,01,06,259,*60
$IIMTW,15.0,C*17
$IIZDA,094716,14,01,2006,,*52
$IIHVM,1,E*27
$IIZTG,094716,,0*58
$IIMWD,085.5,T,084.5,M,2.5,N,1.3,M*40
$IIVTG,078.0,T,077.0,M,0.0,N,0.0,K*56
$IIAPB,A,A,0.00,R,N,,,,,0,193.0,M,,*09
$IIBWC,094716,,,,,194.0,T,193.0,M,1.90,N,0*2D
$IIDBT,8.5,f,2.59,M,1.41,F*16
$IIGGA,094716,4050.075,N,01415.194,E,1,06,1,11,M,47,M,,*7C
$IIGLL,4050.075,N,01415.194,E,094716,A*3E
$IIHDG,040.5,,,1,E*3C
$IIHDM,040.5,M*23
$IIHDT,041.5,T*22
$IIRSA,16,A,,V*50
$IIMWV,354.5,R,2.5,N,A*3D
$IIMWV,354.5,T,2.5,N,A*3B
$PNATD,II,,A,A,A,,,,,,*22
$IIVHW,041.5,T,040.5,M,0.00,N,0.00,K*54
$IIVPW,0.00,N,0.00,M*52
$IIVWR,013.0,L,2.5,N,1.3,M,4.6,K*52
$IIVWT,013.0,L,2.1,N,1.1,M,3.9,K*5A
$IIXTE,A,A,0.00,R,N*67
$IIAPB,A,A,0.00,R,N,,,,,0,193.0,M,,*09
$IIBWC,094717,,,,,194.0,T,193.0,M,1.90,N,0*2C
$IIDBT,8.4,f,2.56,M,1.40,F*19
$IIGGA,094717,4050.075,N,01415.194,E,1,06,1,11,M,47,M,,*7D
$IIGLL,4050.075,N,01415.194,E,094718,A*30
$IIHDG,041.0,,,1,E*38
$IIHDM,041.0,M*27
$IIHDT,042.0,T*24
$IIRSA,16,A,,V*50
$IIMWV,015.0,R,2.1,N,A*3A
$IIMWV,015.0,T,2.1,N,A*3C
$PNATD,II,,A,A,A,,,,,,*22
$IIVHW,042.0,T,041.0,M,0.00,N,0.00,K*56
$IIVPW,0.00,N,0.00,M*52
$IIVWR,015.0,R,2.1,N,1.1,M,3.9,K*44
$IIVWT,015.0,R,2.1,N,1.1,M,3.9,K*42
$IIXTE,A,A,0.00,R,N*67
$IIAPB,A,A,0.00,R,N,,,,,0,193.0,M,,*09
$IIBWC,094719,,,,,194.0,T,193.0,M,1.90,N,0*22
$IIDBT,8.2,f,2.50,M,1.36,F*18
$IIGGA,094719,4050.075,N,01415.194,E,1,06,1,11,M,47,M,,*73
$IIGLL,4050.075,N,01415.194,E,094719,A*31
$IIHDG,040.0,,,1,E*39
$IIHDM,040.0,M*26
$IIHDT,041.0,T*27
$IIRSA,16,A,,V*50
$IIMWV,025.5,R,2.5,N,A*38
$IIMWV,025.5,T,2.5,N,A*3E
$PNATD,II,,A,A,A,,,,,,*22
$IIVHW,041.0,T,040.0,M,0.00,N,0.00,K*54
$IIVPW,0.00,N,0.00,M*52
$IIVWR,020.5,R,3.1,N,1.6,M,5.7,K*49
$IIVWT,020.5,R,3.1,N,1.6,M,5.7,K*4F
$IIXTE,A,A,0.00,R,N*67
$IIMWD,061.5,T,060.5,M,3.1,N,1.6,M*40
$IIVTG,078.0,T,077.0,M,0.0,N,0.0,K*56
$IIAPB,A,A,0.00,R,N,,,,,0,193.0,M,,*09
$IIBWC,094721,,,,,194.0,T,193.0,M,1.90,N,0*29
$IIDBT,8.4,f,2.56,M,1.40,F*19
$IIGGA,094721,4050.075,N,01415.194,E,1,06,1,11,M,47,M,,*78
$IIGLL,4050.075,N,01415.194,E,094721,A*3A
$IIHDG,041.0,,,1,E*38
$IIHDM,041.0,M*27
$IIHDT,042.0,T*24
$IIRSA,16,A,,V*50
$IIMWV,009.5,R,3.4,N,A*36
$IIMWV,009.5,T,3.4,N,A*30
$PNATD,II,,A,A,A,,,,,,*22
$IIVHW,042.0,T,041.0,M,0.00,N,0.00,K*56
$IIVPW,0.00,N,0.00,M*52
$IIVWR,005.5,R,3.8,N,2.0,M,7.0,K*47
$IIVWT,005.5,R,3.8,N,2.0,M,7.0,K*41
$IIXTE,A,A,0.00,R,N*67
$IIAPB,A,A,0.00,R,N,,,,,0,193.0,M,,*09
$IIBWC,094723,,,,,194.0,T,193.0,M,1.90,N,0*2B
$IIDBT,8.3,f,2.53,M,1.38,F*14
$IIGGA,094723,4050.075,N,01415.194,E,1,06,1,11,M,47,M,,*7A
$IIGLL,4050.075,N,01415.194,E,094723,A*38
$IIHDG,041.0,,,1,E*38
$IIHDM,041.0,M*27
$IIHDT,042.0,T*24
$IIRSA,16,A,,V*50
$IIMWV,016.5,R,3.9,N,A*35
$IIMWV,016.5,T,3.9,N,A*33
$PNATD,II,,A,A,A,,,,,,*22
$IIVHW,042.0,T,041.0,M,0.00,N,0.00,K*56
$IIVPW,0.00,N,0.00,M*52
$IIVWR,010.0,R,3.9,N,2.0,M,7.2,K*45
$IIVWT,010.0,R,3.9,N,2.0,M,7.2,K*43
$IIXTE,A,A,0.00,R,N*67
$IIGSA,,3,06,30,21,05,15,16,,,,,,,,1,*7B
$IIGSV,2,1,24,06,74,010,40,30,53,109,40,21,43,181,40,05,25,118,39*6A
$IIGSV,2,2,24,15,18,195,45,10,14,077,,16,12,302,36,01,06,259,*64
$IIMTW,15.0,C*17
$IIZDA,094725,14,01,2006,,*52
$IIHVM,1,E*27
$IIZTG,094725,,0*58
$IIMWD,043.0,T,042.0,M,4.1,N,2.1,M*43
$IIVTG,078.0,T,077.0,M,0.0,N,0.0,K*56
$IIAPB,A,A,0.00,R,N,,,,,0,193.0,M,,*09
$IIBWC,094727,,,,,194.0,T,193.0,M,1.90,N,0*2F
$IIDBT,8.6,f,2.62,M,1.43,F*1F
$IIGGA,094727,4050.075,N,01415.194,E,1,06,1,9,M,47,M,,*47
$IIGLL,4050.075,N,01415.194,E,094727,A*3C
$IIHDG,041.0,,,1,E*38
$IIHDM,041.0,M*27
$IIHDT,042.5,T*21
$IIRSA,15,A,,V*53
$IIMWV,352.0,R,4.3,N,A*3E
$IIMWV,008.0,T,4.3,N,A*34
$PNATD,II,,A,A,A,,,,,,*22
$IIVHW,042.5,T,041.5,M,0.00,N,0.00,K*56
$IIVPW,0.00,N,0.00,M*52
$IIVWR,008.0,R,4.4,N,2.3,M,8.1,K*49
$IIVWT,008.0,R,4.4,N,2.3,M,8.1,K*4F
$IIXTE,A,A,0.00,R,N*67
$IIAPB,A,A,0.00,R,N,,,,,0,193.0,M,,*09
$IIBWC,094728,,,,,194.0,T,193.0,M,1.90,N,0*20
$IIDBT,8.6,f,2.62,M,1.43,F*1F
$IIGGA,094728,4050.075,N,01415.194,E,1,06,1,9,M,47,M,,*48
$IIGLL,4050.075,N,01415.194,E,094729,A*32
$IIHDG,041.0,,,1,E*38
$IIHDM,040.5,M*23
$IIHDT,041.5,T*22
$IIRSA,16,A,,V*50
$IIMWV,002.0,R,4.1,N,A*3A
$IIMWV,002.0,T,4.1,N,A*3C
$PNATD,II,,A,A,A,,,,,,*22
$IIVHW,041.5,T,040.5,M,0.00,N,0.00,K*54
$IIVPW,0.00,N,0.00,M*52
$IIVWR,002.0,R,4.1,N,2.1,M,7.6,K*4C
$IIVWT,002.0,L,3.9,N,2.0,M,7.2,K*5E
$IIXTE,A,A,0.00,R,N*67
$IIAPB,A,A,0.00,R,N,,,,,0,193.0,M,,*09
$IIBWC,094730,,,,,194.0,T,193.0,M,1.90,N,0*29
$IIDBT,8.3,f,2.53,M,1.38,F*14
$IIGGA,094730,4050.075,N,01415.194,E,1,06,1,9,M,47,M,,*41
$IIGLL,4050.075,N,01415.194,E,094730,A*3A
$IIHDG,041.0,,,1,E*38
$IIHDM,041.0,M*27
$IIHDT,042.0,T*24
$IIRSA,16,A,,V*50
$IIMWV,354.5,R,3.7,N,A*3E
$IIMWV,354.5,T,3.7,N,A*38
$PNATD,II,,A,A,A,,,,,,*22
$IIVHW,042.0,T,041.0,M,0.00,N,0.00,K*56
$IIVPW,0.00,N,0.00,M*52
$IIVWR,005.5,L,3.7,N,1.9,M,6.9,K*54
$IIVWT,005.5,L,3.7,N,1.9,M,6.9,K*52
$IIXTE,A,A,0.00,R,N*67
$IIMWD,036.5,T,035.5,M,3.7,N,1.9,M*4B
$IIVTG,078.0,T,077.0,M,0.0,N,0.0,K*56
$IIAPB,A,A,0.00,R,N,,,,,0,193.0,M,,*09
$IIBWC,094732,,,,,194.0,T,193.0,M,1.90,N,0*2B
$IIDBT,8.2,f,2.50,M,1.36,F*18
$IIGGA,094732,4050.075,N,01415.194,E,1,06,1,9,M,47,M,,*43
$IIGLL,4050.075,N,01415.194,E,094732,A*38
$IIHDG,041.0,,,1,E*38
$IIHDM,041.0,M*27
$IIHDT,042.0,T*24
$IIRSA,16,A,,V*50
$IIMWV,345.0,R,3.2,N,A*3E
$IIMWV,345.0,T,3.2,N,A*38
$PNATD,II,,A,A,A,,,,,,*22
$IIVHW,041.0,T,040.0,M,0.00,N,0.00,K*54
$IIVPW,0.00,N,0.00,M*52
$IIVWR,015.0,L,3.2,N,1.6,M,5.9,K*59
$IIVWT,015.0,L,3.2,N,1.6,M,5.9,K*5F
$IIXTE,A,A,0.00,R,N*67
$IIAPB,A,A,0.00,R,N,,,,,0,193.0,M,,*09
$IIBWC,094734,,,,,194.0,T,193.0,M,1.90,N,0*2D
$IIDBT,8.5,f,2.59,M,1.41,F*16
$IIGGA,094734,4050.075,N,01415.194,E,1,06,1,9,M,47,M,,*45
$IIGLL,4050.075,N,01415.194,E,094734,A*3E
$IIHDG,040.0,,,1,E*39
$IIHDM,041.0,M*27
$IIHDT,042.0,T*24
$IIRSA,16,A,,V*50
$IIMWV,343.0,R,3.7,N,A*3D
$IIMWV,343.0,T,3.7,N,A*3B
$PNATD,II,,A,A,A,,,,,,*22
$IIVHW,042.0,T,041.0,M,0.00,N,0.00,K*56
$IIVPW,0.00,N,0.00,M*52
$IIVWR,017.0,L,3.7,N,1.9,M,6.9,K*52
$IIVWT,017.0,L,3.7,N,1.9,M,6.9,K*54
$IIXTE,A,A,0.00,R,N*67
$IIGSA,,3,06,30,21,05,15,16,,,,,,,,1,*7B
$IIGSV,2,1,22,06,74,010,42,30,53,109,41,21,43,181,41,05,25,118,38*6F
$IIGSV,2,2,22,15,18,195,44,10,14,077,*6A
$IIMTW,15.0,C*17
$IIZDA,094736,14,01,2006,,*50
$IIHVM,1,E*27
$IIZTG,094736,,0*5A
$IIMWD,054.0,T,053.0,M,5.1,N,2.6,M*43
$IIVTG,078.0,T,077.0,M,0.0,N,0.0,K*56
$IIAPB,A,A,0.00,R,N,,,,,0,193.0,M,,*09
$IIBWC,094737,,,,,194.0,T,193.0,M,1.90,N,0*2E
$IIDBT,8.3,f,2.53,M,1.38,F*14
$IIGGA,094737,4050.075,N,01415.194,E,1,06,1,7,M,47,M,,*48
$IIGLL,4050.075,N,01415.194,E,094737,A*3D
$IIHDG,041.0,,,1,E*38
$IIHDM,041.0,M*27
$IIHDT,042.0,T*24
$IIRSA,16,A,,V*50
$IIMWV,003.0,R,5.2,N,A*39
$IIMWV,003.0,T,5.2,N,A*3F
$PNATD,II,,A,A,A,,,,,,*22
$IIVHW,042.0,T,041.0,M,0.00,N,0.00,K*56
$IIVPW,0.00,N,0.00,M*52
$IIVWR,003.0,R,5.2,N,2.7,M,9.6,K*47
$IIVWT,003.0,R,5.2,N,2.7,M,9.6,K*41
$IIXTE,A,A,0.00,R,N*67
$IIAPB,A,A,0.00,R,N,,,,,0,193.0,M,,*09
$IIBWC,094738,,,,,194.0,T,193.0,M,1.90,N,0*21
$IIDBT,8.4,f,2.56,M,1.40,F*19
$IIGGA,094738,4050.075,N,01415.194,E,1,06,1,7,M,47,M,,*47
$IIGLL,4050.075,N,01415.194,E,094738,A*32
$IIHDG,041.0,,,1,E*38
$IIHDM,041.0,M*27
$IIHDT,042.0,T*24
$IIRSA,16,A,,V*50
$IIMWV,006.5,R,5.1,N,A*3A
$IIMWV,006.5,T,5.1,N,A*3C
$PNATD,II,,A,A,A,,,,,,*22
$IIVHW,042.0,T,041.0,M,0.00,N,0.00,K*56
$IIVPW,0.00,N,0.00,M*52
$IIVWR,006.0,L,5.1,N,2.6,M,9.4,K*5C
$IIVWT,006.0,L,5.1,N,2.6,M,9.4,K*5A
$IIXTE,A,A,0.00,R,N*67
$IIAPB,A,A,0.00,R,N,,,,,0,193.0,M,,*09
$IIBWC,094740,,,,,194.0,T,193.0,M,1.90,N,0*2E
$IIDBT,8.3,f,2.53,M,1.38,F*14
$IIGGA,094740,4050.075,N,01415.194,E,1,06,1,7,M,47,M,,*48
$IIGLL,4050.075,N,01415.194,E,094740,A*3D
$IIHDG,041.0,,,1,E*38
$IIHDM,041.0,M*27
$IIHDT,042.0,T*24
$IIRSA,16,A,,V*50
$IIMWV,359.5,R,4.9,N,A*3A
$IIMWV,359.5,T,4.9,N,A*3C
$PNATD,II,,A,A,A,,,,,,*22
$IIVHW,042.0,T,041.0,M,0.00,N,0.00,K*56
$IIVPW,0.00,N,0.00,M*52
$IIVWR,000.5,L,4.9,N,2.5,M,9.1,K*50
$IIVWT,000.5,L,4.9,N,2.5,M,9.1,K*56
$IIXTE,A,A,0.00,R,N*67
$IIMWD,043.5,T,042.5,M,4.8,N,2.5,M*4E
$IIVTG,078.0,T,077.0,M,0.0,N,0.0,K*56
$IIAPB,A,A,0.00,R,N,,,,,0,193.0,M,,*09
$IIBWC,094742,,,,,194.0,T,193.0,M,1.90,N,0*2C
$IIDBT,8.3,f,2.53,M,1.38,F*14
$IIGGA,094742,4050.075,N,01415.194,E,1,06,1,7,M,47,M,,*4A
$IIGLL,4050.075,N,01415.194,E,094742,A*3F
$IIHDG,040.5,,,1,E*3C
$IIHDM,040.5,M*23
$IIHDT,041.5,T*22
$IIRSA,16,A,,V*50
$IIMWV,358.5,R,4.8,N,A*3A
$IIMWV,358.5,T,4.8,N,A*3C
$PNATD,II,,A,A,A,,,,,,*22
$IIVHW,041.0,T,040.0,M,0.00,N,0.00,K*54
$IIVPW,0.00,N,0.00,M*52
$IIVWR,001.5,L,4.8,N,2.5,M,8.9,K*59
$IIVWT,001.5,L,4.8,N,2.5,M,8.9,K*5F
$IIXTE,A,A,0.00,R,N*67
$IIAPB,A,A,0.00,R,N,,,,,0,193.0,M,,*09
$IIBWC,094744,,,,,194.0,T,193.0,M,1.90,N,0*2A
$IIDBT,8.2,f,2.50,M,1.36,F*18
$IIGGA,094744,4050.075,N,01415.194,E,1,06,1,7,M,47,M,,*4C
$IIGLL,4050.075,N,01415.194,E,094744,A*39
$IIHDG,040.0,,,1,E*39
$IIHDM,040.0,M*26
$IIHDT,041.0,T*27
$IIRSA,16,A,,V*50
$IIMWV,359.5,R,4.9,N,A*3A
$IIMWV,359.5,T,4.9,N,A*3C
$PNATD,II,,A,A,A,,,,,,*22
$IIVHW,041.0,T,040.0,M,0.00,N,0.00,K*54
$IIVPW,0.00,N,0.00,M*52
$IIVWR,000.5,L,4.9,N,2.5,M,9.1,K*50
$IIVWT,000.5,L,4.9,N,2.5,M,9.1,K*56
$IIXTE,A,A,0.00,R,N*67
$IIGSA,,3,06,30,21,05,15,16,,,,,,,,1,*7B
$IIGSV,2,1,20,06,74,012,43,30,52,110,40,21,44,181,42,05,24,119,39*63
$IIGSV,2,2,20,15,19,195,44,10,14,077,,16,13,303,36,01,06,259,*60
$IIMTW,15.0,C*17
$IIZDA,094746,14,01,2006,,*57
$IIHVM,1,E*27
$IIZTG,094746,,0*5D
$IIMWD,047.0,T,046.0,M,4.6,N,2.4,M*41
$IIVTG,078.0,T,077.0,M,0.0,N,0.0,K*56
$IIAPB,A,A,0.00,R,N,,,,,0,193.0,M,,*09
$IIBWC,094747,,,,,194.0,T,193.0,M,1.90,N,0*29
$IIDBT,8.4,f,2.56,M,1.40,F*19
$IIGGA,094746,4050.075,N,01415.194,E,1,06,1,7,M,47,M,,*4E
$IIGLL,4050.075,N,01415.194,E,094746,A*3B
$IIHDG,040.0,,,1,E*39
$IIHDM,040.0,M*26
$IIHDT,041.0,T*27
$IIRSA,16,A,,V*50
$IIMWV,017.0,R,4.4,N,A*3B
$IIMWV,017.0,T,4.4,N,A*3D
$PNATD,II,,A,A,A,,,,,,*22
$IIVHW,041.0,T,040.0,M,0.00,N,0.00,K*54
$IIVPW,0.00,N,0.00,M*52
$IIVWR,004.5,L,4.4,N,2.3,M,8.1,K*5E
$IIVWT,004.5,L,4.4,N,2.3,M,8.1,K*58
$IIXTE,A,A,0.00,R,N*67
$IIAPB,A,A,0.00,R,N,,,,,0,193.0,M,,*09
$IIBWC,094747,,,,,194.0,T,193.0,M,1.90,N,0*29
$IIDBT,8.7,f,2.65,M,1.45,F*1F
$IIGGA,094747,4050.075,N,01415.194,E,1,06,1,3,M,47,M,,*4B
$IIGLL,4050.075,N,01415.194,E,094748,A*35
$IIHDG,040.0,,,1,E*39
$IIHDM,040.0,M*26
$IIHDT,041.0,T*27
$IIRSA,16,A,,V*50
$IIMWV,351.5,R,4.1,N,A*3A
$IIMWV,351.5,T,4.1,N,A*3C
$PNATD,II,,A,A,A,,,,,,*22
$IIVHW,041.0,T,040.0,M,0.00,N,0.00,K*54
$IIVPW,0.00,N,0.00,M*52
$IIVWR,008.5,L,4.1,N,2.1,M,7.6,K*5D
$IIVWT,008.5,L,4.1,N,2.1,M,7.6,K*5B
$IIXTE,A,A,0.00,R,N*67
$IIAPB,A,A,0.00,R,N,,,,,0,193.0,M,,*09
$IIBWC,094749,,,,,194.0,T,193.0,M,1.90,N,0*27
$IIDBT,8.4,f,2.56,M,1.40,F*19
$IIGGA,094749,4050.075,N,01415.194,E,1,06,1,3,M,47,M,,*45
$IIGLL,4050.075,N,01415.194,E,094749,A*34
$IIHDG,040.0,,,1,E*39
$IIHDM,040.0,M*26
$IIHDT,041.0,T*27
$IIRSA,16,A,,V*50
$IIMWV,351.0,R,4.3,N,A*3D
$IIMWV,351.0,T,4.3,N,A*3B
$PNATD,II,,A,A,A,,,,,,*22
$IIVHW,041.0,T,040.0,M,0.00,N,0.00,K*54
$IIVPW,0.00,N,0.00,M*52
$IIVWR,006.0,R,4.3,N,2.2,M,8.0,K*40
$IIVWT,006.0,R,4.3,N,2.2,M,8.0,K*46
$IIXTE,A,A,0.00,R,N*67
$IIMWD,047.0,T,046.0,M,4.3,N,2.2,M*42
$IIVTG,078.0,T,077.0,M,0.0,N,0.0,K*56
$IIAPB,A,A,0.00,R,N,,,,,0,193.0,M,,*09
$IIBWC,094751,,,,,194.0,T,193.0,M,1.90,N,0*2E
$IIDBT,8.3,f,2.53,M,1.38,F*14
$IIGGA,094751,4050.075,N,01415.194,E,1,06,1,3,M,47,M,,*4C
$IIGLL,4050.075,N,01415.194,E,094751,A*3D
$IIHDG,040.0,,,1,E*39
$IIHDM,040.0,M*26
$IIHDT,041.0,T*27
$IIRSA,16,A,,V*50
$IIMWV,009.5,R,4.2,N,A*37
$IIMWV,009.5,T,4.2,N,A*31
$PNATD,II,,A,A,A,,,,,,*22
$IIVHW,041.0,T,040.0,M,0.00,N,0.00,K*54
$IIVPW,0.00,N,0.00,M*52
$IIVWR,007.5,R,4.0,N,2.1,M,7.4,K*4F
$IIVWT,007.5,R,4.0,N,2.1,M,7.4,K*49
$IIXTE,A,A,0.00,R,N*67
$IIAPB,A,A,0.00,R,N,,,,,0,193.0,M,,*09
$IIBWC,094753,,,,,194.0,T,193.0,M,1.90,N,0*2C
$IIDBT,8.7,f,2.65,M,1.45,F*1F
$IIGGA,094753,4050.075,N,01415.194,E,1,06,1,3,M,47,M,,*4E
$IIGLL,4050.075,N,01415.194,E,094753,A*3F
$IIHDG,040.0,,,1,E*39
$IIHDM,040.0,M*26
$IIHDT,041.0,T*27
$IIRSA,16,A,,V*50
$IIMWV,349.0,R,4.4,N,A*33
$IIMWV,349.0,T,4.4,N,A*35
$PNATD,II,,A,A,A,,,,,,*22
$IIVHW,041.0,T,040.0,M,0.00,N,0.00,K*54
$IIVPW,0.00,N,0.00,M*52
$IIVWR,001.5,R,4.6,N,2.4,M,8.5,K*44
$IIVWT,001.5,R,4.6,N,2.4,M,8.5,K*42
$IIXTE,A,A,0.00,R,N*67
$IIGSA,,3,06,30,21,05,15,16,,,,,,,,3,*79
$IIGSV,2,1,24,06,74,012,43,30,52,110,40,21,44,181,42,05,24,119,41*68
$IIGSV,2,2,24,15,19,195,45,10,14,077,,16,13,303,34,01,06,259,*67
$IIMTW,15.0,C*17
$IIZDA,094755,14,01,2006,,*55
$IIHVM,1,E*27
$IIZTG,094755,,0*5F
$IIMWD,034.0,T,033.0,M,5.2,N,2.7,M*41
$IIVTG,078.0,T,077.0,M,0.0,N,0.0,K*56
$IIAPB,A,A,0.00,R,N,,,,,0,193.0,M,,*09
$IIBWC,094756,,,,,194.0,T,193.0,M,1.90,N,0*29
$IIDBT,8.2,f,2.50,M,1.36,F*18
$IIGGA,094756,4050.075,N,01415.194,E,1,05,3,4,M,47,M,,*4D
$IIGLL,4050.075,N,01415.194,E,094756,A*3A
$IIHDG,040.0,,,1,E*39
$IIHDM,040.0,M*26
$IIHDT,041.0,T*27
$IIRSA,16,A,,V*50
$IIMWV,359.5,R,5.7,N,A*35
$IIMWV,359.5,T,5.7,N,A*33
$PNATD,II,,A,A,A,,,,,,*22
$IIVHW,041.5,T,040.5,M,0.00,N,0.00,K*54
$IIVPW,0.00,N,0.00,M*52
$IIVWR,024.0,L,5.8,N,3.0,M,10.7,K*69
$IIVWT,024.0,L,5.8,N,3.0,M,10.7,K*6F
$IIXTE,A,A,0.00,R,N*67
$IIAPB,A,A,0.00,R,N,,,,,0,193.0,M,,*09
$IIBWC,094757,,,,,194.0,T,193.0,M,1.90,N,0*28
$IIDBT,8.4,f,2.56,M,1.40,F*19
$IIGGA,094757,4050.075,N,01415.194,E,1,06,1,4,M,47,M,,*4D
$IIGLL,4050.075,N,01415.194,E,094758,A*34
$IIHDG,040.0,,,1,E*39
$IIHDM,040.0,M*26
$IIHDT,041.0,T*27
$IIRSA,15,A,,V*53
$IIMWV,357.0,R,5.4,N,A*3D
$IIMWV,357.0,T,5.4,N,A*3B
$PNATD,II,,A,A,A,,,,,,*22
$IIVHW,041.5,T,040.5,M,0.00,N,0.00,K*54
$IIVPW,0.00,N,0.00,M*52
$IIVWR,003.0,L,5.4,N,2.8,M,10.0,K*6E
$IIVWT,003.0,L,5.4,N,2.8,M,10.0,K*68
$IIXTE,A,A,0.00,R,N*67
$IIAPB,A,A,0.00,R,N,,,,,0,193.0,M,,*09
$IIBWC,094759,,,,,194.0,T,193.0,M,1.90,N,0*26
$IIDBT,8.4,f,2.56,M,1.40,F*19
$IIGGA,094759,4050.075,N,01415.194,E,1,06,1,4,M,47,M,,*43
$IIGLL,4050.075,N,01415.194,E,094759,A*35
$IIHDG,040.0,,,1,E*39
$IIHDM,040.0,M*26
$IIHDT,041.0,T*27
$IIRSA,16,A,,V*50
$IIMWV,024.0,R,4.2,N,A*3D
$IIMWV,024.0,T,4.2,N,A*3B
$PNATD,II,,A,A,A,,,,,,*22
$IIVHW,041.0,T,040.0,M,0.00,N,0.00,K*54
$IIVPW,0.00,N,0.00,M*52
$IIVWR,024.0,R,4.2,N,2.2,M,7.8,K*46
$IIVWT,024.0,R,4.2,N,2.2,M,7.8,K*40
$IIXTE,A,A,0.00,R,N*67
$IIMWD,065.5,T,064.5,M,4.2,N,2.2,M*43
$IIVTG,078.0,T,077.0,M,0.0,N,0.0,K*56
$IIAPB,A,A,0.00,R,N,,,,,0,193.0,M,,*09
$IIBWC,094801,,,,,194.0,T,193.0,M,1.90,N,0*24
$IIDBT,8.7,f,2.65,M,1.45,F*1F
$IIGGA,094801,4050.075,N,01415.194,E,1,06,1,4,M,47,M,,*41
$IIGLL,4050.075,N,01415.194,E,094801,A*37
$IIHDG,040.0,,,1,E*39
$IIHDM,040.0,M*26
$IIHDT,041.0,T*27
$IIRSA,16,A,,V*50
$IIMWV,037.5,R,4.0,N,A*38
$IIMWV,037.5,T,4.0,N,A*3E
$PNATD,II,,A,A,A,,,,,,*22
$IIVHW,041.0,T,040.0,M,0.00,N,0.00,K*54
$IIVPW,0.00,N,0.00,M*52
$IIVWR,037.5,R,4.0,N,2.1,M,7.4,K*4C
$IIVWT,037.5,R,4.0,N,2.1,M,7.4,K*4A
$IIXTE,A,A,0.00,R,N*67
$IIAPB,A,A,0.00,R,N,,,,,0,193.0,M,,*09
$IIBWC,094803,,,,,194.0,T,193.0,M,1.90,N,0*26
$IIDBT,8.3,f,2.53,M,1.38,F*14
$IIGGA,094803,4050.075,N,01415.194,E,1,06,1,4,M,47,M,,*43
$IIGLL,4050.075,N,01415.194,E,094803,A*35
$IIHDG,040.0,,,1,E*39
$IIHDM,040.0,M*26
$IIHDT,041.0,T*27
$IIRSA,16,A,,V*50
$IIMWV,025.5,R,3.3,N,A*3F
$IIMWV,025.5,T,3.3,N,A*39
$PNATD,II,,A,A,A,,,,,,*22
$IIVHW,041.0,T,040.0,M,0.00,N,0.00,K*54
$IIVPW,0.00,N,0.00,M*52
$IIVWR,025.5,R,3.3,N,1.7,M,6.1,K*4A
$IIVWT,025.5,R,3.3,N,1.7,M,6.1,K*4C
$IIXTE,A,A,0.00,R,N*67
$IIGSA,,3,06,30,21,05,15,,,,,,,,,1,*7C
$IIGSV,2,1,24,06,74,012,43,30,52,110,42,21,44,181,43,05,24,119,41*6B
$IIGSV,2,2,24,15,19,195,40,10,14,077,,16,13,303,30,01,06,259,*66
$IIMTW,15.0,C*17
$IIZDA,094805,14,01,2006,,*5F
$IIHVM,1,E*27
$IIZTG,094805,,0*55
$IIMWD,054.0,T,053.0,M,3.1,N,1.6,M*46
$IIVTG,078.0,T,077.0,M,0.0,N,0.0,K*56
$IIAPB,A,A,0.00,R,N,,,,,0,193.0,M,,*09
$IIBWC,094806,,,,,194.0,T,193.0,M,1.90,N,0*23
$IIDBT,8.4,f,2.56,M,1.40,F*19
$IIGGA,094806,4050.075,N,01415.194,E,1,06,1,3,M,47,M,,*41
$IIGLL,4050.075,N,01415.194,E,094806,A*30
$IIHDG,040.0,,,1,E*39
$IIHDM,040.0,M*26
$IIHDT,041.0,T*27
$IIRSA,16,A,,V*50
$IIMWV,014.5,R,3.6,N,A*38
$IIMWV,014.5,T,3.6,N,A*3E
$PNATD,II,,A,A,A,,,,,,*22
$IIVHW,041.5,T,040.5,M,0.00,N,0.00,K*54
$IIVPW,0.00,N,0.00,M*52
$IIVWR,014.5,R,3.6,N,1.9,M,6.7,K*45
$IIVWT,014.5,R,3.6,N,1.9,M,6.7,K*43
$IIXTE,A,A,0.00,R,N*67
$IIAPB,A,A,0.00,R,N,,,,,0,193.0,M,,*09
$IIBWC,094807,,,,,194.0,T,193.0,M,1.90,N,0*22
$IIDBT,8.4,f,2.56,M,1.40,F*19
$IIGGA,094807,4050.075,N,01415.194,E,1,06,1,3,M,47,M,,*40
$IIGLL,4050.075,N,01415.194,E,094808,A*3E
$IIHDG,041.0,,,1,E*38
$IIHDM,041.0,M*27
$IIHDT,042.0,T*24
$IIRSA,16,A,,V*50
$IIMWV,032.5,R,3.9,N,A*33
$IIMWV,032.5,T,3.9,N,A*35
$PNATD,II,,A,A,A,,,,,,*22
$IIVHW,041.5,T,040.5,M,0.00,N,0.00,K*54
$IIVPW,0.00,N,0.00,M*52
$IIVWR,036.0,R,4.6,N,2.4,M,8.5,K*45
$IIVWT,036.0,R,4.6,N,2.4,M,8.5,K*43
$IIXTE,A,A,0.00,R,N*67
$IIAPB,A,A,0.00,R,N,,,,,0,193.0,M,,*09
$IIBWC,094809,,,,,194.0,T,193.0,M,1.90,N,0*2C
$IIDBT,8.2,f,2.50,M,1.36,F*18
$IIGGA,094809,4050.075,N,01415.194,E,1,06,1,3,M,47,M,,*4E
$IIGLL,4050.075,N,01415.194,E,094809,A*3F
$IIHDG,040.0,,,1,E*39
$IIHDM,040.0,M*26
$IIHDT,041.0,T*27
$IIRSA,16,A,,V*50
$IIMWV,030.5,R,4.5,N,A*3A
$IIMWV,030.5,T,4.5,N,A*3C
$PNATD,II,,A,A,A,,,,,,*22
$IIVHW,041.0,T,040.0,M,0.00,N,0.00,K*54
$IIVPW,0.00,N,0.00,M*52
$IIVWR,030.5,R,4.5,N,2.3,M,8.3,K*44
$IIVWT,030.5,R,4.5,N,2.3,M,8.3,K*42
$IIXTE,A,A,0.00,R,N*67
$IIMWD,071.0,T,070.0,M,4.5,N,2.3,M*45
$IIVTG,078.0,T,077.0,M,0.0,N,0.0,K*56
$IIAPB,A,A,0.00,R,N,,,,,0,193.0,M,,*09
$IIBWC,094811,,,,,194.0,T,193.0,M,1.90,N,0*25
$IIDBT,8.3,f,2.53,M,1.38,F*14
$IIGGA,094811,4050.075,N,01415.194,E,1,06,1,3,M,47,M,,*47
$IIGLL,4050.075,N,01415.194,E,094811,A*36
$IIHDG,040.0,,,1,E*39
$IIHDM,040.0,M*26
$IIHDT,041.0,T*27
$IIRSA,16,A,,V*50
$IIMWV,031.0,R,4.9,N,A*32
$IIMWV,031.0,T,4.9,N,A*34
$PNATD,II,,A,A,A,,,,,,*22
$IIVHW,041.0,T,040.0,M,0.00,N,0.00,K*54
$IIVPW,0.00,N,0.00,M*52
$IIVWR,031.0,R,4.9,N,2.5,M,9.1,K*49
$IIVWT,031.0,R,4.9,N,2.5,M,9.1,K*4F
$IIXTE,A,A,0.00,R,N*67
$IIAPB,A,A,0.00,R,N,,,,,0,193.0,M,,*09
$IIBWC,094813,,,,,194.0,T,193.0,M,1.90,N,0*27
$IIDBT,8.4,f,2.56,M,1.40,F*19
$IIGGA,094813,4050.075,N,01415.194,E,1,06,1,3,M,47,M,,*45
$IIGLL,4050.075,N,01415.194,E,094813,A*34
$IIHDG,040.0,,,1,E*39
$IIHDM,040.0,M*26
$IIHDT,041.0,T*27
$IIRSA,16,A,,V*50
$IIMWV,035.0,R,4.9,N,A*36
$IIMWV,035.0,T,4.9,N,A*30
$PNATD,II,,A,A,A,,,,,,*22
$IIVHW,041.0,T,040.0,M,0.00,N,0.00,K*54
$IIVPW,0.00,N,0.00,M*52
$IIVWR,035.0,R,4.9,N,2.5,M,9.1,K*4D
$IIVWT,035.0,R,4.9,N,2.5,M,9.1,K*4B
$IIXTE,A,A,0.00,R,N*67
$IIGSA,,3,06,30,21,05,15,16,,,,,,,,1,*7B
$IIGSV,2,1,24,06,74,012,43,30,52,110,36,21,44,181,41,05,24,119,37*6B
$IIGSV,2,2,24,15,19,195,44,10,14,077,,16,13,303,35,01,06,259,*67
$IIMTW,15.0,C*17
$IIZDA,094815,14,01,2006,,*5E
$IIHVM,1,E*27
$IIZTG,094815,,0*54
$IIMWD,058.0,T,057.0,M,5.5,N,2.8,M*41
$IIVTG,078.0,T,077.0,M,0.0,N,0.0,K*56
$IIAPB,A,A,0.00,R,N,,,,,0,193.0,M,,*09
$IIBWC,094816,,,,,194.0,T,193.0,M,1.90,N,0*22
$IIDBT,8.5,f,2.59,M,1.41,F*16
$IIGGA,094816,4050.075,N,01415.194,E,1,06,1,3,M,47,M,,*40
$IIGLL,4050.075,N,01415.194,E,094816,A*31
$IIHDG,040.5,,,1,E*3C
$IIHDM,040.5,M*23
$IIHDT,041.5,T*22
$IIRSA,16,A,,V*50
$IIMWV,027.0,R,4.9,N,A*35
$IIMWV,027.0,T,4.9,N,A*33
$PNATD,II,,A,A,A,,,,,,*22
$IIVHW,041.0,T,040.0,M,0.00,N,0.00,K*54
$IIVPW,0.00,N,0.00,M*52
$IIVWR,027.0,R,4.9,N,2.5,M,9.1,K*4E
$IIVWT,027.0,R,4.9,N,2.5,M,9.1,K*48
$IIXTE,A,A,0.00,R,N*67
$IIAPB,A,A,0.00,R,N,,,,,0,193.0,M,,*09
$IIBWC,094817,,,,,194.0,T,193.0,M,1.90,N,0*23
$IIDBT,8.3,f,2.53,M,1.38,F*14
$IIGGA,094817,4050.075,N,01415.194,E,1,06,1,4,M,47,M,,*46
$IIGLL,4050.075,N,01415.194,E,094818,A*3F
$IIHDG,040.0,,,1,E*39
$IIHDM,040.0,M*26
$IIHDT,041.0,T*27
$IIRSA,16,A,,V*50
$IIMWV,031.0,R,4.0,N,A*3B
$IIMWV,031.0,T,4.0,N,A*3D
$PNATD,II,,A,A,A,,,,,,*22
$IIVHW,041.0,T,040.0,M,0.00,N,0.00,K*54
$IIVPW,0.00,N,0.00,M*52
$IIVWR,031.0,R,4.0,N,2.1,M,7.4,K*4F
$IIVWT,031.0,R,4.0,N,2.1,M,7.4,K*49
$IIXTE,A,A,0.00,R,N*67
$IIAPB,A,A,0.00,R,N,,,,,0,193.0,M,,*09
$IIBWC,094819,,,,,194.0,T,193.0,M,1.90,N,0*2D
$IIDBT,8.3,f,2.53,M,1.38,F*14
$IIGGA,094819,4050.075,N,01415.194,E,1,06,1,4,M,47,M,,*48
$IIGLL,4050.075,N,01415.194,E,094819,A*3E
$IIHDG,041.0,,,1,E*38
$IIHDM,041.0,M*27
$IIHDT,042.0,T*24
$IIRSA,16,A,,V*50
$IIMWV,042.0,R,3.9,N,A*31
$IIMWV,042.0,T,3.9,N,A*37
$PNATD,II,,A,A,A,,,,,,*22
$IIVHW,042.0,T,041.0,M,0.00,N,0.00,K*56
$IIVPW,0.00,N,0.00,M*52
$IIVWR,052.0,R,3.9,N,2.0,M,7.2,K*43
$IIVWT,052.0,R,3.9,N,2.0,M,7.2,K*45
$IIXTE,A,A,0.00,R,N*67
$IIMWD,094.0,T,093.0,M,3.9,N,2.0,M*4B
$IIVTG,078.0,T,077.0,M,0.0,N,0.0,K*56
$IIAPB,A,A,0.00,R,N,,,,,0,193.0,M,,*09
$IIBWC,094821,,,,,194.0,T,193.0,M,1.90,N,0*26
$IIDBT,8.6,f,2.62,M,1.43,F*1F
$IIGGA,094821,4050.075,N,01415.194,E,1,06,1,4,M,47,M,,*43
$IIGLL,4050.075,N,01415.194,E,094821,A*35
$IIHDG,041.5,,,1,E*3D
$IIHDM,041.5,M*22
$IIHDT,042.5,T*21
$IIRSA,16,A,,V*50
$IIMWV,050.5,R,3.7,N,A*39
$IIMWV,050.5,T,3.7,N,A*3F
$PNATD,II,,A,A,A,,,,,,*22
$IIVHW,042.0,T,041.0,M,0.00,N,0.00,K*56
$IIVPW,0.00,N,0.00,M*52
$IIVWR,050.5,R,3.8,N,2.0,M,7.0,K*47
$IIVWT,050.5,R,3.8,N,2.0,M,7.0,K*41
$IIXTE,A,A,0.00,R,N*67
$IIAPB,A,A,0.00,R,N,,,,,0,193.0,M,,*09
$IIBWC,094823,,,,,194.0,T,193.0,M,1.90,N,0*24
$IIDBT,8.4,f,2.56,M,1.40,F*19
$IIGGA,094823,4050.075,N,01415.194,E,1,06,1,4,M,47,M,,*41
$IIGLL,4050.075,N,01415.194,E,094823,A*37
$IIHDG,041.0,,,1,E*38
$IIHDM,041.0,M*27
$IIHDT,042.0,T*24
$IIRSA,16,A,,V*50
$IIMWV,037.0,R,3.9,N,A*33
$IIMWV,037.0,T,3.9,N,A*35
$PNATD,II,,A,A,A,,,,,,*22
$IIVHW,042.0,T,041.0,M,0.00,N,0.00,K*56
$IIVPW,0.00,N,0.00,M*52
$IIVWR,017.0,R,3.8,N,2.0,M,7.0,K*41
$IIVWT,017.0,R,3.8,N,2.0,M,7.0,K*47
$IIXTE,A,A,0.00,R,N*67
$IIGSA,,3,06,30,21,05,15,16,,,,,,,,1,*7B
$IIGSV,2,1,24,06,74,012,42,30,52,110,36,21,44,181,46,05,24,119,38*62
$IIGSV,2,2,24,15,19,195,42,10,14,077,,16,13,303,33,01,06,259,*67
$IIMTW,15.0,C*17
$IIZDA,094825,14,01,2006,,*5D
$IIHVM,1,E*27
$IIZTG,094825,,0*57
$IIMWD,060.5,T,059.5,M,3.6,N,1.9,M*43
$IIVTG,078.0,T,077.0,M,0.0,N,0.0,K*56
$IIAPB,A,A,0.00,R,N,,,,,0,193.0,M,,*09
$IIBWC,094826,,,,,194.0,T,193.0,M,1.90,N,0*21
$IIDBT,8.2,f,2.50,M,1.36,F*18
$IIGGA,094826,4050.075,N,01415.194,E,1,06,1,3,M,47,M,,*43
$IIGLL,4050.075,N,01415.194,E,094826,A*32
$IIHDG,041.0,,,1,E*38
$IIHDM,041.0,M*27
$IIHDT,042.0,T*24
$IIRSA,15,A,,V*53
$IIMWV,018.0,R,3.4,N,A*33
$IIMWV,018.0,T,3.4,N,A*35
$PNATD,II,,A,A,A,,,,,,*22
$IIVHW,042.0,T,041.0,M,0.00,N,0.00,K*56
$IIVPW,0.00,N,0.00,M*52
$IIVWR,012.5,R,3.3,N,1.7,M,6.1,K*4E
$IIVWT,012.5,R,3.3,N,1.7,M,6.1,K*48
$IIXTE,A,A,0.00,R,N*67
$IIAPB,A,A,0.00,R,N,,,,,0,193.0,M,,*09
$IIBWC,094827,,,,,194.0,T,193.0,M,1.90,N,0*20
$IIDBT,8.5,f,2.59,M,1.41,F*16
$IIGGA,094827,4050.075,N,01415.194,E,1,06,1,3,M,47,M,,*42
$IIGLL,4050.075,N,01415.194,E,094828,A*3C
$IIHDG,041.5,,,1,E*3D
$IIHDM,041.5,M*22
$IIHDT,042.5,T*21
$IIRSA,16,A,,V*50
$IIMWV,354.5,R,2.9,N,A*31
$IIMWV,354.5,T,2.9,N,A*37
$PNATD,II,,A,A,A,,,,,,*22
$IIVHW,042.0,T,041.0,M,0.00,N,0.00,K*56
$IIVPW,0.00,N,0.00,M*52
$IIVWR,005.5,L,2.9,N,1.5,M,5.4,K*59
$IIVWT,005.5,L,2.9,N,1.5,M,5.4,K*5F
$IIXTE,A,A,0.00,R,N*67
$IIAPB,A,A,0.00,R,N,,,,,0,193.0,M,,*09
$IIBWC,094829,,,,,194.0,T,193.0,M,1.90,N,0*2E
$IIDBT,8.4,f,2.56,M,1.40,F*19
$IIGGA,094829,4050.075,N,01415.194,E,1,06,1,3,M,47,M,,*4C
$IIGLL,4050.075,N,01415.194,E,094829,A*3D
$IIHDG,041.0,,,1,E*38
$IIHDM,041.0,M*27
$IIHDT,042.0,T*24
$IIRSA,16,A,,V*50
$IIMWV,351.5,R,2.8,N,A*35
$IIMWV,351.5,T,2.3,N,A*38
$PNATD,II,,A,A,A,,,,,,*22
$IIVHW,042.0,T,041.0,M,0.00,N,0.00,K*56
$IIVPW,0.00,N,0.00,M*52
$IIVWR,008.5,L,2.3,N,1.2,M,4.3,K*5F
$IIVWT,008.5,L,2.3,N,1.2,M,4.3,K*59
$IIXTE,A,A,0.00,R,N*67
$IIMWD,033.5,T,032.5,M,2.3,N,1.2,M*47
$IIVTG,078.0,T,077.0,M,0.0,N,0.0,K*56
$IIAPB,A,A,0.00,R,N,,,,,0,193.0,M,,*09
$IIBWC,094831,,,,,194.0,T,193.0,M,1.90,N,0*27
$IIDBT,8.3,f,2.53,M,1.38,F*14
$IIGGA,094831,4050.075,N,01415.194,E,1,06,1,3,M,47,M,,*45
$IIGLL,4050.075,N,01415.194,E,094831,A*34
$IIHDG,041.0,,,1,E*38
$IIHDM,041.0,M*27
$IIHDT,042.0,T*24
$IIRSA,16,A,,V*50
$IIMWV,003.0,R,2.3,N,A*3F
$IIMWV,026.5,T,2.3,N,A*3B
$PNATD,II,,A,A,A,,,,,,*22
$IIVHW,042.0,T,041.0,M,0.00,N,0.00,K*56
$IIVPW,0.00,N,0.00,M*52
$IIVWR,026.5,R,2.3,N,1.2,M,4.3,K*4D
$IIVWT,026.5,R,2.3,N,1.2,M,4.3,K*4B
$IIXTE,A,A,0.00,R,N*67
$IIAPB,A,A,0.00,R,N,,,,,0,193.0,M,,*09
$IIBWC,094833,,,,,194.0,T,193.0,M,1.90,N,0*25
$IIDBT,8.6,f,2.62,M,1.43,F*1F
$IIGGA,094833,4050.075,N,01415.194,E,1,06,1,3,M,47,M,,*47
$IIGLL,4050.075,N,01415.194,E,094833,A*36
$IIHDG,041.5,,,1,E*3D
$IIHDM,041.5,M*22
$IIHDT,042.5,T*21
$IIRSA,16,A,,V*50
$IIMWV,027.0,R,2.2,N,A*38
$IIMWV,027.0,T,2.2,N,A*3E
$PNATD,II,,A,A,A,,,,,,*22
$IIVHW,042.5,T,041.5,M,0.00,N,0.00,K*56
$IIVPW,0.00,N,0.00,M*52
$IIVWR,027.0,R,2.2,N,1.1,M,4.1,K*49
$IIVWT,027.0,R,2.2,N,1.1,M,4.1,K*4F
$IIXTE,A,A,0.00,R,N*67
$IIGSA,,3,06,30,21,05,15,16,,,,,,,,1,*7B
$IIGSV,2,1,24,06,74,012,44,30,52,110,36,21,44,181,44,05,24,119,39*67
$IIGSV,2,2,24,15,19,195,45,10,14,077,,16,13,303,36,01,06,259,*65
$IIMTW,15.0,C*17
$IIZDA,094835,14,01,2006,,*5C
$IIHVM,1,E*27
$IIZTG,094835,,0*56
$IIMWD,062.0,T,061.0,M,2.1,N,1.1,M*44
$IIVTG,078.0,T,077.0,M,0.0,N,0.0,K*56
$IIAPB,A,A,0.00,R,N,,,,,0,193.0,M,,*09
$IIBWC,094836,,,,,194.0,T,193.0,M,1.90,N,0*20
$IIDBT,9.1,f,2.77,M,1.51,F*1E
$IIGGA,094836,4050.075,N,01415.194,E,1,06,1,5,M,47,M,,*44
$IIGLL,4050.075,N,01415.194,E,094836,A*33
$IIHDG,041.5,,,1,E*3D
$IIHDM,041.5,M*22
$IIHDT,042.5,T*21
$IIRSA,16,A,,V*50
$IIMWV,019.5,R,2.1,N,A*33
$IIMWV,019.5,T,2.1,N,A*35
$PNATD,II,,A,A,A,,,,,,*22
$IIVHW,042.5,T,041.5,M,0.00,N,0.00,K*56
$IIVPW,0.00,N,0.00,M*52
$IIVWR,027.0,R,1.9,N,1.0,M,3.5,K*43
$IIVWT,027.0,R,1.9,N,1.0,M,3.5,K*45
$IIXTE,A,A,0.00,R,N*67
$IIAPB,A,A,0.00,R,N,,,,,0,193.0,M,,*09
$IIBWC,094837,,,,,194.0,T,193.0,M,1.90,N,0*21
$IIDBT,8.2,f,2.50,M,1.36,F*18
$IIGGA,094837,4050.075,N,01415.194,E,1,06,1,5,M,47,M,,*45
$IIGLL,4050.075,N,01415.194,E,094838,A*3D
$IIHDG,042.5,,,1,E*3E
$IIHDM,042.5,M*21
$IIHDT,043.5,T*20
$IIRSA,16,A,,V*50
$IIMWV,022.0,R,2.1,N,A*3E
$IIMWV,022.0,T,2.1,N,A*38
$PNATD,II,,A,A,A,,,,,,*22
$IIVHW,043.5,T,042.5,M,0.00,N,0.00,K*54
$IIVPW,0.00,N,0.00,M*52
$IIVWR,008.0,R,2.0,N,1.0,M,3.7,K*46
$IIVWT,008.0,R,2.0,N,1.0,M,3.7,K*40
$IIXTE,A,A,0.00,R,N*67
$IIAPB,A,A,0.00,R,N,,,,,0,193.0,M,,*09
$IIBWC,094839,,,,,194.0,T,193.0,M,1.90,N,0*2F
$IIDBT,8.3,f,2.53,M,1.38,F*14
$IIGGA,094839,4050.075,N,01415.194,E,1,06,1,5,M,47,M,,*4B
$IIGLL,4050.075,N,01415.194,E,094839,A*3C
$IIHDG,041.5,,,1,E*3D
$IIHDM,041.5,M*22
$IIHDT,042.5,T*21
$IIRSA,16,A,,V*50
$IIMWV,032.5,R,2.2,N,A*39
$IIMWV,032.5,T,2.2,N,A*3F
$PNATD,II,,A,A,A,,,,,,*22
$IIVHW,042.5,T,041.5,M,0.00,N,0.00,K*56
$IIVPW,0.00,N,0.00,M*52
$IIVWR,032.5,R,2.2,N,1.1,M,4.1,K*48
$IIVWT,032.5,R,2.2,N,1.1,M,4.1,K*4E
$IIXTE,A,A,0.00,R,N*67
$IIMWD,072.0,T,071.0,M,2.7,N,1.4,M*47
$IIVTG,078.0,T,077.0,M,0.0,N,0.0,K*56
$IIAPB,A,A,0.00,R,N,,,,,0,193.0,M,,*09
$IIBWC,094841,,,,,194.0,T,193.0,M,1.90,N,0*20
$IIDBT,8.7,f,2.65,M,1.45,F*1F
$IIGGA,094841,4050.075,N,01415.194,E,1,05,3,5,M,47,M,,*45
$IIGLL,4050.075,N,01415.194,E,094841,A*33
$IIHDG,041.5,,,1,E*3D
$IIHDM,041.5,M*22
$IIHDT,042.5,T*21
$IIRSA,16,A,,V*50
$IIMWV,356.5,R,3.3,N,A*38
$IIMWV,356.5,T,3.3,N,A*3E
$PNATD,II,,A,A,A,,,,,,*22
$IIVHW,042.5,T,041.5,M,0.00,N,0.00,K*56
$IIVPW,0.00,N,0.00,M*52
$IIVWR,003.5,L,3.3,N,1.7,M,6.1,K*50
$IIVWT,003.5,L,3.3,N,1.7,M,6.1,K*56
$IIXTE,A,A,0.00,R,N*67
$IIAPB,A,A,0.00,R,N,,,,,0,193.0,M,,*09
$IIBWC,094843,,,,,194.0,T,193.0,M,1.90,N,0*22
$IIDBT,8.3,f,2.53,M,1.38,F*14
$IIGGA,094843,4050.075,N,01415.194,E,1,06,1,5,M,47,M,,*46
$IIGLL,4050.075,N,01415.194,E,094843,A*31
$IIHDG,042.0,,,1,E*3B
$IIHDM,042.0,M*24
$IIHDT,043.0,T*25
$IIRSA,16,A,,V*50
$IIMWV,015.0,R,3.2,N,A*38
$IIMWV,015.0,T,3.2,N,A*3E
$PNATD,II,,A,A,A,,,,,,*22
$IIVHW,042.5,T,041.5,M,0.00,N,0.00,K*56
$IIVPW,0.00,N,0.00,M*52
$IIVWR,015.0,R,3.2,N,1.6,M,5.9,K*47
$IIVWT,015.0,R,3.2,N,1.6,M,5.9,K*41
$IIXTE,A,A,0.00,R,N*67
$IIGSA,,3,06,30,21,05,15,16,,,,,,,,3,*79
$IIGSV,2,1,24,06,74,012,43,30,52,110,37,21,44,181,45,05,24,119,37*6E
$IIGSV,2,2,24,15,19,195,46,10,14,077,,16,13,303,36,01,06,259,*66
$IIMTW,15.0,C*17
$IIZDA,094845,14,01,2006,,*5B
$IIHVM,1,E*27
$IIZTG,094845,190000,0*59
$IIMWD,076.5,T,075.5,M,2.7,N,1.4,M*47
$IIVTG,108.0,T,107.0,M,0.1,N,0.2,K*55
$IIAPB,A,A,0.00,R,N,,,,,0,193.0,M,,*09
$IIBWC,094846,,,,,194.0,T,193.0,M,1.90,N,0*27
$IIDBT,8.8,f,2.68,M,1.46,F*1E
$IIGGA,094846,4050.075,N,01415.194,E,1,05,3,5,M,47,M,,*42
$IIGLL,4050.075,N,01415.194,E,094846,A*34
$IIHDG,041.5,,,1,E*3D
$IIHDM,041.5,M*22
$IIHDT,042.5,T*21
$IIRSA,16,A,,V*50
$IIMWV,030.0,R,2.4,N,A*38
$IIMWV,030.0,T,2.4,N,A*3E
$PNATD,II,,A,A,A,,,,,,*22
$IIVHW,042.5,T,041.5,M,0.00,N,0.00,K*56
$IIVPW,0.00,N,0.00,M*52
$IIVWR,030.0,R,2.4,N,1.2,M,4.4,K*4F
$IIVWT,030.0,R,2.4,N,1.2,M,4.4,K*49
$IIXTE,A,A,0.00,R,N*67
$IIAPB,A,A,0.00,R,N,,,,,0,193.0,M,,*09
$IIBWC,094847,,,,,194.0,T,193.0,M,1.90,N,0*26
$IIDBT,8.6,f,2.62,M,1.43,F*1F
$IIGGA,094847,4050.075,N,01415.194,E,1,06,1,11,M,47,M,,*77
$IIGLL,4050.075,N,01415.194,E,094848,A*3A
$IIHDG,041.0,,,1,E*38
$IIHDM,041.0,M*27
$IIHDT,041.5,T*22
$IIRSA,16,A,,V*50
$IIMWV,033.0,R,2.2,N,A*3D
$IIMWV,033.0,T,2.2,N,A*3B
$PNATD,II,,A,A,A,,,,,,*22
$IIVHW,041.5,T,040.5,M,0.00,N,0.00,K*54
$IIVPW,0.00,N,0.00,M*52
$IIVWR,033.0,R,2.2,N,1.1,M,4.1,K*4C
$IIVWT,033.0,R,2.2,N,1.1,M,4.1,K*4A
$IIXTE,A,A,0.00,R,N*67
$IIAPB,A,A,0.00,R,N,,,,,0,193.0,M,,*09
$IIBWC,094849,,,,,194.0,T,193.0,M,1.90,N,0*28
$IIDBT,8.3,f,2.53,M,1.38,F*14
$IIGGA,094849,4050.075,N,01415.194,E,1,06,1,11,M,47,M,,*79
$IIGLL,4050.075,N,01415.194,E,094849,A*3B
$IIHDG,040.5,,,1,E*3C
$IIHDM,040.5,M*23
$IIHDT,041.5,T*22
$IIRSA,16,A,,V*50
$IIMWV,018.0,R,2.5,N,A*33
$IIMWV,018.0,T,2.5,N,A*35
$PNATD,II,,A,A,A,,,,,,*22
$IIVHW,041.5,T,040.5,M,0.00,N,0.00,K*54
$IIVPW,0.00,N,0.00,M*52
$IIVWR,018.0,R,2.5,N,1.3,M,4.6,K*47
$IIVWT,001.5,L,3.0,N,1.5,M,5.6,K*51
$IIXTE,A,A,0.00,R,N*67
$IIMWD,041.0,T,040.0,M,3.0,N,1.5,M*42
$IIVTG,108.0,T,107.0,M,0.0,N,0.0,K*56
$IIAPB,A,A,0.00,R,N,,,,,0,193.0,M,,*09
$IIBWC,094851,,,,,194.0,T,193.0,M,1.90,N,0*21
$IIDBT,8.5,f,2.59,M,1.41,F*16
$IIGGA,094851,4050.075,N,01415.194,E,1,06,1,11,M,47,M,,*70
$IIGLL,4050.075,N,01415.194,E,094851,A*32
$IIHDG,041.0,,,1,E*38
$IIHDM,041.0,M*27
$IIHDT,042.0,T*24
$IIRSA,16,A,,V*50
$IIMWV,005.0,R,3.5,N,A*3E
$IIMWV,005.0,T,3.5,N,A*38
$PNATD,II,,A,A,A,,,,,,*22
$IIVHW,042.0,T,041.0,M,0.00,N,0.00,K*56
$IIVPW,0.00,N,0.00,M*52
$IIVWR,016.0,R,3.5,N,1.8,M,6.5,K*42
$IIVWT,016.0,R,3.2,N,1.6,M,5.9,K*42
$IIXTE,A,A,0.00,R,N*67
$IIAPB,A,A,0.00,R,N,,,,,0,193.0,M,,*09
$IIBWC,094853,,,,,194.0,T,193.0,M,1.90,N,0*23
$IIDBT,8.5,f,2.59,M,1.41,F*16
$IIGGA,094853,4050.075,N,01415.194,E,1,05,3,11,M,47,M,,*73
$IIGLL,4050.075,N,01415.194,E,094853,A*30
$IIHDG,040.0,,,1,E*39
$IIHDM,040.0,M*26
$IIHDT,041.0,T*27
$IIRSA,16,A,,V*50
$IIMWV,022.5,R,3.5,N,A*3E
$IIMWV,022.5,T,3.5,N,A*38
$PNATD,II,,A,A,A,,,,,,*22
$IIVHW,041.5,T,040.5,M,0.00,N,0.00,K*54
$IIVPW,0.00,N,0.00,M*52
$IIVWR,022.5,R,3.5,N,1.8,M,6.5,K*40
$IIVWT,022.5,R,3.5,N,1.8,M,6.5,K*46
$IIXTE,A,A,0.00,R,N*67
$IIGSA,,3,06,30,21,15,15,16,,,,,,,,3,*78
$IIGSV,2,1,24,06,74,012,42,30,52,110,46,21,44,181,42,05,24,119,*6A
$IIGSV,2,2,24,15,19,195,45,10,15,076,,16,13,303,29,01,05,258,*69
$IIMTW,15.0,C*17
$IIZDA,094855,14,01,2006,,*5A
$IIHVM,1,E*27
$IIZTG,094855,,0*50
$IIMWD,049.0,T,048.0,M,3.3,N,1.7,M*43
$IIVTG,108.0,T,107.0,M,0.0,N,0.0,K*56
$IIAPB,A,A,0.00,R,N,,,,,0,193.0,M,,*09
$IIBWC,094856,,,,,194.0,T,193.0,M,1.90,N,0*26
$IIDBT,8.2,f,2.50,M,1.36,F*18
$IIGGA,094856,4050.075,N,01415.194,E,1,06,1,11,M,47,M,,*77
$IIGLL,4050.075,N,01415.194,E,094856,A*35
$IIHDG,041.0,,,1,E*38
$IIHDM,041.0,M*27
$IIHDT,042.0,T*24
$IIRSA,16,A,,V*50
$IIMWV,009.5,R,3.5,N,A*37
$IIMWV,009.5,T,3.5,N,A*31
$PNATD,II,,A,A,A,,,,,,*22
$IIVHW,041.5,T,040.5,M,0.00,N,0.00,K*54
$IIVPW,0.00,N,0.00,M*52
$IIVWR,010.0,R,3.7,N,1.9,M,6.9,K*4B
$IIVWT,010.0,R,3.7,N,1.9,M,6.9,K*4D
$IIXTE,A,A,0.00,R,N*67
$IIAPB,A,A,0.00,R,N,,,,,0,193.0,M,,*09
$IIBWC,094857,,,,,194.0,T,193.0,M,1.90,N,0*27
$IIDBT,8.5,f,2.59,M,1.41,F*16
$IIGGA,094857,4050.075,N,01415.194,E,1,05,3,13,M,47,M,,*75
$IIGLL,4050.075,N,01415.194,E,094858,A*3B
$IIHDG,039.5,,,1,E*32
$IIHDM,039.5,M*2D
$IIHDT,040.5,T*23
$IIRSA,16,A,,V*50
$IIMWV,359.0,R,3.4,N,A*35
$IIMWV,359.0,T,3.4,N,A*33
$PNATD,II,,A,A,A,,,,,,*22
$IIVHW,041.0,T,040.0,M,0.00,N,0.00,K*54
$IIVPW,0.00,N,0.00,M*52
$IIVWR,001.0,L,3.4,N,1.8,M,6.3,K*5D
$IIVWT,001.0,L,3.4,N,1.8,M,6.3,K*5B
$IIXTE,A,A,0.00,R,N*67
$IIAPB,A,A,0.00,R,N,,,,,0,193.0,M,,*09
$IIBWC,094859,,,,,194.0,T,193.0,M,1.90,N,0*29
$IIDBT,8.5,f,2.59,M,1.41,F*16
$IIGGA,094859,4050.075,N,01415.194,E,1,06,1,13,M,47,M,,*7A
$IIGLL,4050.075,N,01415.194,E,094859,A*3A
$IIHDG,040.5,,,1,E*3C
$IIHDM,040.5,M*23
$IIHDT,041.0,T*27
$IIRSA,16,A,,V*50
$IIMWV,018.5,R,3.6,N,A*34
$IIMWV,336.0,T,5.1,N,A*39
$PNATD,II,,A,A,A,,,,,,*22
$IIVHW,041.0,T,040.0,M,0.00,N,0.00,K*54
$IIVPW,0.00,N,0.00,M*52
$IIVWR,024.0,L,5.1,N,2.6,M,9.4,K*5C
$IIVWT,024.0,L,5.1,N,2.6,M,9.4,K*5A
$IIXTE,A,A,0.00,R,N*67
$IIMWD,017.0,T,016.0,M,5.1,N,2.6,M*45
$IIVTG,107.5,T,106.5,M,0.0,N,0.0,K*58
$IIAPB,A,A,0.00,R,N,,,,,0,193.0,M,,*09
$IIBWC,094901,,,,,194.0,T,193.0,M,1.90,N,0*25
$IIDBT,8.3,f,2.53,M,1.38,F*14
$IIGGA,094901,4050.075,N,01415.194,E,1,06,1,13,M,47,M,,*76
$IIGLL,4050.075,N,01415.194,E,094901,A*36
$IIHDG,039.5,,,1,E*32
$IIHDM,039.5,M*2D
$IIHDT,040.5,T*23
$IIRSA,16,A,,V*50
$IIMWV,344.0,R,4.9,N,A*33
$IIMWV,344.0,T,4.9,N,A*35
$PNATD,II,,A,A,A,,,,,,*22
$IIVHW,040.5,T,039.5,M,0.00,N,0.00,K*5B
$IIVPW,0.00,N,0.00,M*52
$IIVWR,013.5,L,4.6,N,2.4,M,8.5,K*59
$IIVWT,013.5,L,4.6,N,2.4,M,8.5,K*5F
$IIXTE,A,A,0.00,R,N*67
$IIAPB,A,A,0.00,R,N,,,,,0,193.0,M,,*09
$IIBWC,094903,,,,,194.0,T,193.0,M,1.90,N,0*27
$IIDBT,8.8,f,2.68,M,1.46,F*1E
$IIGGA,094903,4050.075,N,01415.194,E,1,05,3,13,M,47,M,,*75
$IIGLL,4050.075,N,01415.194,E,094903,A*34
$IIHDG,039.0,,,1,E*37
$IIHDM,039.0,M*28
$IIHDT,040.0,T*26
$IIRSA,16,A,,V*50
$IIMWV,343.5,R,4.8,N,A*30
$IIMWV,310.0,T,4.8,N,A*35
$PNATD,II,,A,A,A,,,,,,*22
$IIVHW,040.0,T,039.0,M,0.00,N,0.00,K*5B
$IIVPW,0.00,N,0.00,M*52
$IIVWR,050.0,L,4.7,N,2.4,M,8.7,K*58
$IIVWT,050.0,L,4.7,N,2.4,M,8.7,K*5E
$IIXTE,A,A,0.00,R,N*67
$IIGSA,,3,06,30,21,05,15,16,,,,,,,,1,*7B
$IIGSV,2,1,24,06,74,014,45,30,52,111,45,21,44,181,44,05,24,119,32*6E
$IIGSV,2,2,24,15,19,195,40,10,15,076,,16,13,303,34,01,05,258,*60
$IIMTW,15.0,C*17
$IIZDA,094905,14,01,2006,,*5E
$IIHVM,1,E*27
$IIZTG,094905,,0*54
$IIMWD,028.0,T,027.0,M,4.8,N,2.5,M*40
$IIVTG,107.5,T,106.5,M,0.0,N,0.0,K*58
$IIAPB,A,A,0.00,R,N,,,,,0,193.0,M,,*09
$IIBWC,094906,,,,,194.0,T,193.0,M,1.90,N,0*22
$IIDBT,8.4,f,2.56,M,1.40,F*19
$IIGGA,094906,4050.075,N,01415.194,E,1,06,1,13,M,47,M,,*71
$IIGLL,4050.075,N,01415.194,E,094906,A*31
$IIHDG,039.5,,,1,E*32
$IIHDM,039.5,M*2D
$IIHDT,040.5,T*23
ISA,16,A,,V*50
$IIMWV,350.0,R,4.4,N,A*3B
$IIMWV,350.0,T,4.4,N,A*3D
$PNATD,II,,A,A,A,,,,,,*22
$IIVHW,041.0,T,040.0,M,0.00,N,0.00,K*54
$IIVPW,0.00,N,0.00,M*52
$IIVWR,010.0,L,4.2,N,2.2,M,7.8,K*5F
$IIVWT,010.0,L,4.2,N,2.2,M,7.8,K*59
$IIXTE,A,A,0.00,R,N*67
$IIAPB,A,A,0.00,R,N,,,,,0,193.0,M,,*09
$IIBWC,094907,,,,,194.0,T,193.0,M,1.90,N,0*23
$IIDBT,8.3,f,2.53,M,1.38,F*14
$IIGGA,094907,4050.075,N,01415.194,E,1,06,1,14,M,47,M,,*77
$IIGLL,4050.075,N,01415.194,E,094908,A*3F
$IIHDG,040.0,,,1,E*39
$IIHDM,040.0,M*26
$IIHDT,041.0,T*27
$IIRSA,16,A,,V*50
$IIMWV,316.0,R,4.0,N,A*3D
$IIMWV,316.0,T,4.0,N,A*3B
$PNATD,II,,A,A,A,,,,,,*22
$IIVHW,041.0,T,040.0,M,0.00,N,0.00,K*54
$IIVPW,0.00,N,0.00,M*52
$IIVWR,042.0,L,3.5,N,1.8,M,6.5,K*5D
$IIVWT,042.0,L,3.5,N,1.8,M,6.5,K*5B
$IIXTE,A,A,0.00,R,N*67
$IIAPB,A,A,0.00,R,N,,,,,0,193.0,M,,*09
$IIBWC,094909,,,,,194.0,T,193.0,M,1.90,N,0*2D
$IIDBT,8.6,f,2.62,M,1.43,F*1F
$IIGGA,094909,4050.075,N,01415.194,E,1,05,2,14,M,47,M,,*79
$IIGLL,4050.075,N,01415.194,E,094909,A*3E
$IIHDG,039.0,,,1,E*37
$IIHDM,039.0,M*28
$IIHDT,040.0,T*26
$IIRSA,16,A,,V*50
$IIMWV,005.0,R,3.6,N,A*3D
$IIMWV,005.0,T,3.6,N,A*3B
$PNATD,II,,A,A,A,,,,,,*22
$IIVHW,040.0,T,039.0,M,0.00,N,0.00,K*5B
$IIVPW,0.00,N,0.00,M*52
$IIVWR,005.0,R,3.6,N,1.9,M,6.7,K*40
$IIVWT,005.0,R,3.6,N,1.9,M,6.7,K*46
$IIXTE,A,A,0.00,R,N*67
$IIMWD,016.5,T,015.5,M,3.6,N,1.9,M*4A
$IIVTG,107.5,T,106.5,M,0.0,N,0.0,K*58
$IIAPB,A,A,0.00,R,N,,,,,0,193.0,M,,*09
$IIBWC,094911,,,,,194.0,T,193.0,M,1.90,N,0*24
$IIDBT,8.4,f,2.56,M,1.40,F*19
$IIGGA,094911,4050.075,N,01415.194,E,1,06,1,14,M,47,M,,*70
$IIGLL,4050.075,N,01415.194,E,094911,A*37
$IIHDG,039.0,,,1,E*37
$IIHDM,039.0,M*28
$IIHDT,040.0,T*26
$IIRSA,16,A,,V*50
$IIMWV,331.5,R,3.5,N,A*3F
$IIMWV,331.5,T,3.5,N,A*39
$PNATD,II,,A,A,A,,,,,,*22
$IIVHW,040.0,T,039.0,M,0.00,N,0.00,K*5B
$IIVPW,0.00,N,0.00,M*52
$IIVWR,028.5,L,3.5,N,1.8,M,6.5,K*54
$IIVWT,028.5,L,3.5,N,1.8,M,6.5,K*52
$IIXTE,A,A,0.00,R,N*67
$IIAPB,A,A,0.00,R,N,,,,,0,193.0,M,,*09
$IIBWC,094913,,,,,194.0,T,193.0,M,1.90,N,0*26
$IIDBT,8.3,f,2.53,M,1.38,F*14
$IIGGA,094913,4050.075,N,01415.194,E,1,06,1,14,M,47,M,,*72
$IIGLL,4050.075,N,01415.194,E,094913,A*35
$IIHDG,039.0,,,1,E*37
$IIHDM,039.0,M*28
$IIHDT,040.0,T*26
$IIRSA,16,A,,V*50
$IIMWV,356.0,R,4.3,N,A*3A
$IIMWV,356.0,T,4.3,N,A*3C
$PNATD,II,,A,A,A,,,,,,*22
$IIVHW,040.0,T,039.0,M,0.00,N,0.00,K*5B
$IIVPW,0.00,N,0.00,M*52
$IIVWR,004.0,L,4.3,N,2.2,M,8.0,K*5C
$IIVWT,004.0,L,4.3,N,2.2,M,8.0,K*5A
$IIXTE,A,A,0.00,R,N*67
$IIGSA,,3,06,30,21,05,15,16,,,,,,,,1,*7B
$IIGSV,2,1,24,06,74,014,42,30,52,111,40,21,44,181,41,05,24,119,31*6A
$IIGSV,2,2,24,15,19,195,44,10,15,076,,16,13,303,34,01,05,258,*64
$IIMTW,15.0,C*17
$IIZDA,094915,14,01,2006,,*5F
$IIHVM,1,E*27
$IIZTG,094915,,0*55
$IIMWD,015.0,T,014.0,M,6.1,N,3.1,M*40
$IIVTG,107.5,T,106.5,M,0.0,N,0.0,K*58
$IIAPB,A,A,0.00,R,N,,,,,0,193.0,M,,*09
$IIBWC,094916,,,,,194.0,T,193.0,M,1.90,N,0*23
$IIDBT,8.5,f,2.59,M,1.41,F*16
$IIGGA,094916,4050.075,N,01415.194,E,1,06,1,14,M,47,M,,*77
$IIGLL,4050.075,N,01415.194,E,094916,A*30
$IIHDG,040.0,,,1,E*39
$IIHDM,040.0,M*26
$IIHDT,041.0,T*27
$IIRSA,16,A,,V*50
$IIMWV,343.0,R,6.4,N,A*3B
$IIMWV,343.0,T,6.4,N,A*3D
$PNATD,II,,A,A,A,,,,,,*22
$IIVHW,041.0,T,040.0,M,0.00,N,0.00,K*54
$IIVPW,0.00,N,0.00,M*52
$IIVWR,017.0,L,6.4,N,3.3,M,11.9,K*6A
$IIVWT,017.0,L,6.4,N,3.3,M,11.9,K*6C
$IIXTE,A,A,0.00,R,N*67
$IIAPB,A,A,0.00,R,N,,,,,0,193.0,M,,*09
$IIBWC,094917,,,,,194.0,T,193.0,M,1.90,N,0*22
